Title,City,State,Value,Status,BidDate,Uses,HasHotel,HasElderly,Lat,Lng
Anduril Industries Arsenal 1,Ashville,OH,1000000000,Conceptual,,Manufacturing,FALSE,FALSE,39.6878,-82.9932
Cuyahoga Riverfront,Cleveland,OH,3500000000,Design,,"Multi-Residential, Office, Restaurant, Retail",FALSE,FALSE,41.4993,-81.6944
QTS Data Centers Miller Avenue / New Albany,New Albany,OH,1900000000,Conceptual,,Data Centers,FALSE,FALSE,40.0822,-82.8101
Cologix Data Campus / Johnstown,Johnstown,OH,7000000000,Design,,Data Centers,FALSE,FALSE,40.1364,-82.7151
Richmond Town Square / Richmond Heights,Richmond Heights,OH,250000000,Award,,"Multi-Residential, Retail",FALSE,FALSE,41.5617,-81.497
The Pike Mixed-Use,Miamisburg,OH,267375000,Pre-Construction/Negotiated,,"Multi-Residential, Office, Manufacturing, Restaurant, Retail, Roads / Highways, Sidewalks / Parking Lot, Water / Sewer, Service Station / Car Wash, Clubhouse / Community Centers",FALSE,FALSE,39.6143,-84.2285
Ohio State Wexner Medical Center Inpatient Hospital,Columbus,OH,1790000000,Under Construction,,"Medical, Educational",FALSE,FALSE,39.995,-83.0196
First Flight Commerce Center Business Park,Miamisburg,OH,146000000,Under Construction,,Office,FALSE,FALSE,39.6149,-84.2081
Vantage Data Center Expansion - Silicon Heartland Innovation Park,New Albany,OH,2250000000,Under Construction,,Data Centers,FALSE,FALSE,40.1041,-82.7447
Airpark Logistics 237 / Business Park,Cincinnati,OH,100000000,Under Construction,,Warehouse / Distribution,FALSE,FALSE,39.1894,-84.5806
QTS Data Centers / New Albany,New Albany,OH,1500000000,Under Construction,,Data Centers,FALSE,FALSE,40.0634,-82.7547
Hayes Avenue Industrial Renovation,Sandusky,OH,19300000,Under Construction,,"Manufacturing, Water / Sewer",FALSE,FALSE,41.4308,-82.7171
Amazon Web Services Data Center Campus - New Albany International Business Park / New Albany,Jersey Township,OH,1800000000,Under Construction,,"Office, Data Centers",FALSE,FALSE,40.1162,-82.7525
QTS Data Centers Babbitt Rd/ New Albany,New Albany,OH,1000000000,Conceptual,,Data Centers,FALSE,FALSE,40.0745,-82.7705
New Passenger Terminal at John Glenn Columbus International Airport,Columbus,OH,2000000000,Under Construction,,Transportation Terminals,FALSE,FALSE,39.998,-82.8843
Kimberly-Clark Manufacturing Facility / Warren,Warren,OH,800000000,Under Construction,,Manufacturing,FALSE,FALSE,41.2291,-80.8142
Facebook / Meta - Data Center Expansion / New Albany,New Albany,OH,750000000,Under Construction,,Data Centers,FALSE,FALSE,40.0666,-82.7522
MetalX Aluminum Recycling Facilities / Defiance,Defiance,OH,253000000,Conceptual,,Manufacturing,FALSE,FALSE,41.2845,-84.3558
AeroHub,Cincinnati,OH,150000000,Conceptual,,Manufacturing,FALSE,FALSE,39.2559,-84.4501
Rickenbacker Industrial Center - Phase 1,Lockbourne,OH,100000000,Under Construction,,"Warehouse / Distribution, Industrial",FALSE,FALSE,39.8421,-82.9606
Weston Town Centre,Columbus,OH,50000000,Design,,"Office, Restaurant, Retail",FALSE,FALSE,39.9612,-82.9988
Beachwood Place Mall Repositioning,Beachwood,OH,30000000,Conceptual,,"Multi-Residential, Retail",FALSE,FALSE,41.4985,-81.4941
Louis Dreyfus Company Processing Plant / Upper Sandusky,Upper Sandusky,OH,500000000,Under Construction,,Industrial,FALSE,FALSE,40.8273,-83.2813
Canal Crossing Commerce Center,Canal Winchester,OH,211000000,Design,,Industrial,FALSE,FALSE,39.8699,-82.843
Project Mila / Trenton Industrial Park,Trenton,OH,700000000,Conceptual,,Data Centers,FALSE,FALSE,39.461,-84.4502
Cuyahoga County Corrections Center,Garfield Heights,OH,900000000,Under Construction,,"Jails / Prisons, Municipal, Office, Parking Garage",FALSE,FALSE,41.413,-81.6159
Midpointe Crossing,Cincinnati,OH,75000000,Conceptual,,"Multi-Residential, Office, Parking Garage, Restaurant, Retail",FALSE,FALSE,39.1879,-84.4631
Tower at Erieview Remodel,Cleveland,OH,20000000,Under Construction,,Multi-Residential,FALSE,FALSE,41.5049,-81.6895
Mill Creek District Development - West Chester Township,West Chester,OH,700000000,Conceptual,,"Office, Restaurant, Retail, Industrial",FALSE,FALSE,39.3321,-84.4173
Bowling Green Data Center / Middleton Township,Plain Township,OH,800000000,Under Construction,,"Office, Data Centers, Warehouse / Distribution",FALSE,FALSE,41.4585,-83.6507
The Merchant Building,Columbus,OH,292000000,Under Construction,,"Multi-Residential, Office, Parking Garage, Restaurant, Retail, Hotel / Motel",TRUE,FALSE,39.9719,-83.0043
Vandalia Manufacturing Facility - Joby Aviation,Vandalia,OH,61500000,Conceptual,,"Manufacturing, Industrial",FALSE,FALSE,39.8802,-84.2323
Feilbach Building Redevelopment,Toledo,OH,8000000,Design,,"Multi-Residential, Retail",FALSE,FALSE,41.647,-83.5395
RFQ Construction managers at risk - Career Center Renovations & Additions,Milan,OH,210000000,Post-Bid,"Mar 31, 2025",Municipal,FALSE,FALSE,41.3313,-82.63
West End Mixed Use,Cincinnati,OH,332800000,Design,,"Multi-Residential, Office, Restaurant, Retail, Hotel / Motel",TRUE,FALSE,39.1031,-84.512
Manufacturing Plant Transformation,Cincinnati,OH,240000000,Conceptual,,Manufacturing,FALSE,FALSE,39.1746,-84.5031
Smart Farms Data Center,Johnstown,OH,300000000,Conceptual,,Data Centers,FALSE,FALSE,40.1212,-82.7517
Rock and Roll Land,Cleveland,OH,488000000,Design,,"Parking Garage, Restaurant, Retail, Conference / Convention Centers, Theaters / Auditoriums, Hotel / Motel",TRUE,FALSE,41.4933,-81.6886
Block 1 & 2 Housing Development,Cincinnati,OH,326000000,Under Construction,,"Parking Garage, Retail, Educational, Fitness / Rec Centers, Clubhouse / Community Centers",FALSE,FALSE,39.1273,-84.5117
Harrison Distribution Center,Harrison,OH,106000000,Conceptual,,Warehouse / Distribution,FALSE,FALSE,39.2402,-84.7749
Four New Elementary Schools - Renovate High School - Troy City School District,Troy,OH,128573278,Under Construction,,Educational,FALSE,FALSE,40.0445,-84.1998
P&G Project Bennu BP #8 - PRL & SR Connector/CUP and CLC Fitout Package,Mason,OH,102686000,Post-Bid,"Oct 3, 2025",Municipal,FALSE,FALSE,39.3222,-84.3107
Carew Tower Renovation,Cincinnati,OH,175000000,Under Construction,,"Multi-Residential, Office, Retail",FALSE,FALSE,39.1008,-84.5132
New Home Road Water Plant - Columbus Water & Power,Berlin Township,OH,1600000000,Design,,Water / Sewer,FALSE,FALSE,40.1961,-83.1451
Data Center Campus at Portsmouth Gaseous Diffusion Plant / Piketon,Piketon,OH,1000000000,Conceptual,,Data Centers,FALSE,FALSE,38.9999,-82.9978
Google Data Center / Franklin Furnace and Haverhill Area,Franklin Furnace,OH,1000000000,Conceptual,,Data Centers,FALSE,FALSE,38.6071,-82.8422
Procter & Gamble Mason Business & Innovation Center Expansion,Mason,OH,450000000,Pre-Construction/Negotiated,,Office,FALSE,FALSE,39.3153,-84.3072
Sofidel Manufacturing Facility Expansion / Circleville,Circleville,OH,185000000,Under Construction,,Manufacturing,FALSE,FALSE,39.5525,-82.9583
BJs Wholesale Club Logistics and Distribution Center / Commercial Point,Lockbourne,OH,70000000,Under Construction,,Warehouse / Distribution,FALSE,FALSE,39.7733,-83.0103
A-1 Liquidator Building Redevelopment,Cleveland,OH,10000000,Conceptual,,"Multi-Residential, Retail, Clubhouse / Community Centers",FALSE,FALSE,41.4993,-81.6944
New Honda Warehouse / Troy,Troy,OH,50000000,Pre-Construction/Negotiated,,Industrial,FALSE,FALSE,40.0423,-84.2381
Industrial Development / Grove City,Grove City,OH,50000000,Conceptual,,Industrial,FALSE,FALSE,39.8822,-83.0935
Schneider Electric Facility,Fairfield,OH,82000000,Under Construction,,Industrial,FALSE,FALSE,39.3532,-84.483
Downtown Parking Garage Renovations / Cincinnati,Cincinnati,OH,30976000,GC Bidding,"Mar 2, 2026",Parking Garage,FALSE,FALSE,39.1,-84.5085
Three Oaks Residential Development,Cincinnati,OH,300000000,Final Planning,,"Multi-Residential, Sidewalks / Parking Lot",FALSE,FALSE,39.156,-84.4362
Bright Road Senior Housing & Healthcare Residences,Dublin,OH,55000000,Final Planning,,"Multi-Residential, Office, Elderly Care / Assisted Living",FALSE,TRUE,40.0992,-83.1141
Amgen Biomanufacturing Facility Expansion / New Albany,New Albany,OH,900000000,Under Construction,,Industrial,FALSE,FALSE,40.075,-82.7651
Paycor Stadium Renovations,Cincinnati,OH,1300000000,Pre-Construction/Negotiated,,Arenas / Stadiums,FALSE,FALSE,39.0954,-84.5162
New Manufacturing Facility / Miami Valley Research Park,Dayton,OH,72000000,Conceptual,,Manufacturing,FALSE,FALSE,39.7191,-84.1096
North High Street Mixed Use Development,Columbus,OH,55000000,Design,,"Multi-Residential, Parking Garage, Retail",FALSE,FALSE,40.0063,-83.009
Polsky Building Renovation - University of Akron,Akron,OH,45000000,Pre-Construction/Negotiated,,Educational,FALSE,FALSE,41.0789,-81.5197
Mill Creek Boulevard Development / Highland Hills,Beachwood,OH,40000000,Pre-Construction/Negotiated,,Industrial,FALSE,FALSE,41.4489,-81.5233
Project Crispy / Moraine,Moraine,OH,106175000,Under Construction,,Manufacturing,FALSE,FALSE,39.696,-84.2172
Bluegrass Park Mixed-Use Development / Grove City,Grove City,OH,64000000,Conceptual,,"Medical, Multi-Residential, Office, Retail, Day Care Centers",FALSE,FALSE,39.8475,-83.0721
Columbus Municipal Courthouse - Franklin County Municipal Court,Columbus,OH,230000000,Pre-Construction/Negotiated,,"Municipal, Parking Garage",FALSE,FALSE,39.9547,-82.9991
May 2019 Bond - New Lancaster High School - Lancaster City Schools,Lancaster,OH,103180000,Under Construction,,"Playgrounds / Parks / Athletic Fields, Educational, Theaters / Auditoriums",FALSE,FALSE,39.7137,-82.5993
Stack NAL01B Campus Data Center / New Albany,New Albany,OH,100000000,Conceptual,,Data Centers,FALSE,FALSE,40.1063,-82.8014
New North Ridgeville High School Project - North Ridgeville City School District,North Ridgeville,OH,78000000,Award,,Educational,FALSE,FALSE,41.3882,-82.0017
Latitude Five25 Redevelopment,Columbus,OH,150798805,Pre-Construction/Negotiated,,Multi-Residential,FALSE,FALSE,39.9764,-82.9766
Lodi Station Outlets Redevelopment,Lodi,OH,50000000,Under Construction,,Industrial,FALSE,FALSE,41.0051,-81.9962
Founders Landing,Lebanon,OH,40000000,Under Construction,"May 7, 2024","Multi-Residential, Swimming Pools, Clubhouse / Community Centers",FALSE,FALSE,39.455,-84.1691
Hamilton Innovation Center,Hamilton,OH,1000000000,Final Planning,,Data Centers,FALSE,FALSE,39.3837,-84.5606
23 North Industrial Park,Columbus,OH,15000000,Conceptual,,Industrial,FALSE,FALSE,39.9625,-83.0032
A Honerlaw Farm,West Chester,OH,50000000,Under Construction,,"Office, Warehouse / Distribution",FALSE,FALSE,39.3387,-84.4618
Grant Medical Center Outpatient and Trauma Center Expansion,Columbus,OH,400000000,Under Construction,,"Medical, Parking Garage, Retail",FALSE,FALSE,39.9613,-82.9911
Chase Tower Mixed-use Remodel,Columbus,OH,15000000,Final Planning,,"Multi-Residential, Office, Retail",FALSE,FALSE,39.963,-82.9974
Apex Project Outpatient and Administrative Building,Cleveland,OH,130000000,Under Construction,,Medical,FALSE,FALSE,41.462,-81.6975
The Peninsula Phase 2,Columbus,OH,79000000,Design,,"Multi-Residential, Parking Garage, Retail, Swimming Pools, Clubhouse / Community Centers",FALSE,FALSE,39.959,-83.0087
Higginsport - Slimsallee Community Park,West Union,OH,6400000,Post-Bid,"Jul 30, 2025","Water / Sewer, Playgrounds / Parks / Athletic Fields",FALSE,FALSE,38.7977,-83.5275
Blue Abyss Astronaut Training Center / Brook Park,Brook Park,OH,250000000,Conceptual,,"Educational, Swimming Pools, Laboratories, Hotel / Motel",TRUE,FALSE,41.4024,-81.8735
Farmer Music Center,Cincinnati,OH,160000000,Design,,Theaters / Auditoriums,FALSE,FALSE,39.0552,-84.4198
Washington Church Road Manufacturing Facility,Miamisburg,OH,50000000,Conceptual,,Manufacturing,FALSE,FALSE,39.6113,-84.2085
Axium Packaging Vertix Expansion,Harrison Township,OH,45000000,Conceptual,,Industrial,FALSE,FALSE,40.0777,-82.7153
Vandemark Road Manufacturing Development,Sidney,OH,15000000,Conceptual,,Manufacturing,FALSE,FALSE,40.2959,-84.1846
Solon Road Warehouse,Solon,OH,32000000,Conceptual,,Warehouse / Distribution,FALSE,FALSE,41.3944,-81.4339
CM at Risk  - Miami Valley Behavioral Healthcare,Oxford,OH,275744135,Post-Bid,"Jan 3, 2025",Medical,FALSE,FALSE,39.5091,-84.746
New High School Replacement - Brunswick City Schools,Brunswick,OH,109000000,Award,,Educational,FALSE,FALSE,41.2381,-81.8418
onMain: Dayton's Imagination District,Dayton,OH,25000000,Design,"Sep 23, 2016","Medical, Multi-Residential, Office, Retail, Educational",FALSE,FALSE,39.7446,-84.1888
Euclid And Corry Development / Corryville,Cincinnati,OH,80000000,Design,,"Sidewalks / Parking Lot, Educational",FALSE,FALSE,39.1292,-84.5075
Dayton Arcade Complex Phase 2,Dayton,OH,41000000,Under Construction,,"Restaurant, Retail, Financial, Hotel / Motel",TRUE,FALSE,39.7589,-84.1916
Senior Village at Valle Greene Multi-Residential Development / Fairborn,Fairborn,OH,17272000,Pre-Construction/Negotiated,,"Multi-Residential, Fitness / Rec Centers, Clubhouse / Community Centers",FALSE,FALSE,39.7906,-83.9984
New Police Headquarters,Cleveland,OH,90000000,Under Construction,,"Parking Garage, Fire / Police",FALSE,FALSE,41.509,-81.6734
Hollywood Caliber Filmmaking Facility,Dublin,OH,40000000,Conceptual,,Office,FALSE,FALSE,40.1058,-83.1517
Astor Park Residential Block A,Columbus,OH,8000000,Under Construction,"Jun 17, 2022",Multi-Residential,FALSE,FALSE,39.9612,-82.9988
33 Commerce Center,Marysville,OH,20300000,Under Construction,,Industrial,FALSE,FALSE,40.2245,-83.3347
Arcadia - Van Aken District,Shaker Heights,OH,47000000,Under Construction,,"Multi-Residential, Office, Parking Garage, Retail, Sidewalks / Parking Lot",FALSE,FALSE,41.467,-81.5353
Seasons Road Warehouse and Distribution Center,Stow,OH,25000000,Under Construction,,"Manufacturing, Warehouse / Distribution",FALSE,FALSE,41.203,-81.4728
Stelzer Road Industrial,Columbus,OH,25000000,Pre-Construction/Negotiated,,Industrial,FALSE,FALSE,40.0149,-82.9127
RFP GC - Preconstruction Services & Construction Services - Spitzer Apartments,Toledo,OH,50000000,Post-Bid,"Dec 6, 2024",Multi-Residential,FALSE,FALSE,41.6524,-83.5362
Sears Redevelopment,Richmond Heights,OH,70000000,Pre-Construction/Negotiated,,"Multi-Residential, Restaurant, Hotel / Motel",TRUE,FALSE,41.5436,-81.4972
Great Day Improvements Manufacturing Facility,Sharonville,OH,45000000,Conceptual,,Manufacturing,FALSE,FALSE,39.2681,-84.4133
Amazon Web Services - 3rd Data Center / New Albany,New Albany,OH,400000000,Under Construction,,Data Centers,FALSE,FALSE,40.0822,-82.8101
Valley View Rd Peak Nano Building,Macedonia,OH,40000000,Pre-Construction/Negotiated,,"Sidewalks / Parking Lot, Water / Sewer, Industrial",FALSE,FALSE,41.2923,-81.4877
The Lofts at 40 Long,Columbus,OH,66000000,Under Construction,,"Multi-Residential, Fitness / Rec Centers",FALSE,FALSE,39.9653,-83.0025
CDC/NIOSH Consolidated Cincinnati Research Campus,Cincinnati,OH,100000000,Final Planning,,"Municipal, Parking Garage, Sidewalks / Parking Lot, Laboratories",FALSE,FALSE,39.1349,-84.4969
The Carriage Co,Cleveland,OH,18524510,Under Construction,,"Multi-Residential, Retail, Industrial",FALSE,FALSE,41.482,-81.7021
RFQ Construction Manager at Risk- New PK-8 Facility Project,Norwalk,OH,0,Final Planning,"Jul 11, 2025",Educational,FALSE,FALSE,41.2389,-82.6026
National Resilience West Chester Expansion,Blue Ash,OH,228900000,Conceptual,,Manufacturing,FALSE,FALSE,39.2625,-84.3756
Allerton Apartments Preservation,Cleveland,OH,60000000,Under Construction,"Aug 12, 2024",Multi-Residential,FALSE,FALSE,41.5025,-81.6837
"Creekwood Preserve / Sky Crossing, Sec. 3",Beavercreek,OH,40000000,Conceptual,,Residential Subdivision,FALSE,FALSE,39.7092,-84.0633
Elementary/Middle School Facility Projects,Tipp City,OH,78261413,Under Construction,,Educational,FALSE,FALSE,39.9585,-84.1842
New Pre-K to 8th Grade School - 2024 Bond - Tipp City Exempted Village Schools,Tipp City,OH,71000000,Under Construction,,Educational,FALSE,FALSE,39.9694,-84.1832
ABJ Apartments,Akron,OH,50142778,Pre-Construction/Negotiated,,"Multi-Residential, Office, Retail",FALSE,FALSE,41.0749,-81.5206
New Construction of Career Technology Center - 2024 Bond - Springfield-Clark Career Technology Center,Springfield,OH,89500000,Pre-Construction/Negotiated,,Educational,FALSE,FALSE,39.9001,-83.7932
Canal Pointe Building C,Canal Winchester,OH,30000000,Design,,Industrial,FALSE,FALSE,39.8556,-82.8026
RFQ Design - Old Chemistry Building Renovation/Addition,Cincinnati,OH,150000000,Under Construction,,Educational,FALSE,FALSE,39.1325,-84.5184
9th & High - Off-Campus Student Housing / Columbus,Columbus,OH,61000000,Under Construction,,Multi-Residential,FALSE,FALSE,39.9925,-83.0072
Redevelopment of Waterson Lake Elementary School,Cleveland,OH,50800000,Pre-Construction/Negotiated,,"Multi-Residential, Retail, Industrial",FALSE,FALSE,41.4817,-81.736
Dublin Methodist Hospital Expansion,Dublin,OH,250000000,Design,,Medical,FALSE,FALSE,40.1014,-83.1647
OhioHealth Outpatient Cancer Center,Columbus,OH,226000000,Pre-Construction/Negotiated,,"Medical, Parking Garage",FALSE,FALSE,40.0314,-83.0264
The Civic Building Redevelopment,Columbus,OH,73200000,Pre-Construction/Negotiated,,"Multi-Residential, Office, Retail",FALSE,FALSE,39.959,-83.0023
Main Bar Site Redevelopment,Columbus,OH,70000000,Conceptual,,"Multi-Residential, Parking Garage, Restaurant, Retail",FALSE,FALSE,39.9563,-83.0002
7th Street Multi Residential Apartment Conversion,Cincinnati,OH,67000000,Pre-Construction/Negotiated,,Multi-Residential,FALSE,FALSE,39.104,-84.5126
Vontz Family Education Research and Collections Facility / Queensgate,Cincinnati,OH,45000000,Design,,Museum,FALSE,FALSE,39.1118,-84.5358
Winsupply Distribution Center Expansion,Miamisburg,OH,25000000,Pre-Construction/Negotiated,,Warehouse / Distribution,FALSE,FALSE,39.6183,-84.2364
Akrochem Warehouse and Distribution Center / Tallmadge,Kent,OH,21600000,Under Construction,,Manufacturing,FALSE,FALSE,41.114,-81.382
Union at Cleveland Harbor,Cleveland,OH,69326750,Final Planning,,Multi-Residential,FALSE,FALSE,41.5307,-81.652
Cleveland Metropolitan City Schools Seg 9,Cleveland,OH,96164994,Design,"Jan 16, 2026","Educational, Theaters / Auditoriums",FALSE,FALSE,41.4841,-81.6296
Canal Winchester High School - Renovation and Addition,Canal Winchester,OH,20451000,Under Construction,,Educational,FALSE,FALSE,39.8347,-82.8142
Meijer / Austintown,Austintown,OH,10000000,Under Construction,,"Retail, Educational",FALSE,FALSE,41.1017,-80.7645
Broad Street Commercial Development,Columbus,OH,24400000,Under Construction,,Retail,FALSE,FALSE,39.9844,-82.8369
Norwalk City School District New PK-8,Norwalk,OH,73005036,Design,"Apr 11, 2025",Educational,FALSE,FALSE,41.2248,-82.6119
Wellman Seaver Morgan factory Redevelopment,Cleveland,OH,50000000,Conceptual,,Manufacturing,FALSE,FALSE,41.4952,-81.6401
Shops at Westgate / Toledo,Toledo,OH,30000000,Design,,Retail,FALSE,FALSE,41.6781,-83.6271
Cincinnati Children's Hospital Research Center,Cincinnati,OH,32000000,Pre-Construction/Negotiated,,Laboratories,FALSE,FALSE,39.1343,-84.4955
Barthman Family Homes,Columbus,OH,64296065,Pre-Construction/Negotiated,,Multi-Residential,FALSE,FALSE,39.9243,-82.9974
Spring Street Mixed-Use,Columbus,OH,34000000,Award,,"Multi-Residential, Parking Garage, Retail",FALSE,FALSE,39.9667,-82.9937
Hilliard Commerce Center Upgrades,Hilliard,OH,5000000,Conceptual,,Industrial,FALSE,FALSE,40.0334,-83.1582
The Vibe - Clinton House and Hanover House,Cleveland,OH,80000000,Design,,"Multi-Residential, Parking Garage, Sidewalks / Parking Lot",FALSE,FALSE,41.489,-81.7098
Cincinnati Club Redevelopment,Cincinnati,OH,49000000,Design,,"Office, Parking Garage",FALSE,FALSE,39.1046,-84.5151
Gladden Lofts,Columbus,OH,47779055,Pre-Construction/Negotiated,,Multi-Residential,FALSE,FALSE,39.9139,-82.995
Senior Chateau Apartments Renovation,Cincinnati,OH,43000000,Under Construction,,Multi-Residential,FALSE,FALSE,39.105,-84.5608
Library Park - Phase 4,Columbus,OH,43000000,Pre-Construction/Negotiated,,"Multi-Residential, Office, Sidewalks / Parking Lot, Clubhouse / Community Centers",FALSE,FALSE,39.9625,-82.9889
Meijer / Richmond Heights,Richmond Heights,OH,5000000,Conceptual,,Retail,FALSE,FALSE,41.5528,-81.5101
Plastic Film Manufacturing Expansion,Lexington,OH,106000000,Conceptual,,Manufacturing,FALSE,FALSE,40.6796,-82.56
John Carroll University North Gateway,University Heights,OH,60000000,Under Construction,,"Restaurant, Retail, Educational",FALSE,FALSE,41.487,-81.5363
RFQ Construction Manager at Risk-Perry Local - New 5-8 Middle School,Massillon,OH,62253023,Final Planning,"Dec 5, 2024",Educational,FALSE,FALSE,40.7967,-81.5215
New Elementary/Middle School - 2023 Bond - Salem City Schools,Salem,OH,48787845,Under Construction,,Educational,FALSE,FALSE,40.9009,-80.8568
New Athens High School,The Plains,OH,60000000,Award,"Jul 15, 2025",Educational,FALSE,FALSE,39.3725,-82.128
Data Center / Columbus - Google,Lockbourne,OH,300000000,Under Construction,,Data Centers,FALSE,FALSE,39.8525,-82.9969
Hollywood Casino Columbus Expansion,Columbus,OH,100000000,Pre-Construction/Negotiated,,"Office, Restaurant, Conference / Convention Centers, Hotel / Motel",TRUE,FALSE,39.9488,-83.1078
Irish Village,Dublin,OH,40000000,Design,,"Multi-Residential, Retail",FALSE,FALSE,40.0992,-83.1141
Enable Injections Headquarters,Cincinnati,OH,32000000,Conceptual,,Office,FALSE,FALSE,39.2684,-84.4259
Abbe Road North Refrigerated Warehouse,Sheffield Lake,OH,24340000,Conceptual,,"Warehouse / Distribution, Industrial",FALSE,FALSE,41.4887,-82.0757
Former P&G Sharon Woods Innovation Center,Blue Ash,OH,20000000,Pre-Construction/Negotiated,,"Office, Manufacturing, Warehouse / Distribution, Laboratories",FALSE,FALSE,39.2792,-84.373
Fisher Rd Logistics Expansion,Columbus,OH,7500000,Final Planning,,Warehouse / Distribution,FALSE,FALSE,39.9757,-83.1433
Fairborn Middle School - Fairborn City Schools,Fairborn,OH,51000000,Award,,Educational,FALSE,FALSE,39.7955,-83.9998
Hall of Fame Village Powered by Johnson Controls - Phase 2 - Hall of Fame Waterpark,Canton,OH,75000000,Under Construction,,Amusement and Recreation,FALSE,FALSE,40.7989,-81.3784
Trotwood Salem Mall Redevelopment,Trotwood,OH,25000000,Conceptual,,"Retail, Industrial",FALSE,FALSE,39.7973,-84.3113
Georgetown VA Addition and Modernization,Georgetown,OH,64964572,Pre-Construction/Negotiated,,Residential Subdivision,FALSE,FALSE,38.879,-83.89
May Street Mixed-Use Development,Cincinnati,OH,43000000,Design,,"Multi-Residential, Sidewalks / Parking Lot, Playgrounds / Parks / Athletic Fields, Fitness / Rec Centers, Clubhouse / Community Centers",FALSE,FALSE,39.1313,-84.4941
Detroit Ave Multi-Family Building,Cleveland,OH,30000000,Pre-Construction/Negotiated,,"Multi-Residential, Retail",FALSE,FALSE,41.482,-81.7361
Gahanna Logistics Center,Gahanna,OH,19000000,Design,,Industrial,FALSE,FALSE,40.0001,-82.8549
Construction of a New Elementary and Middle School,Akron,OH,54000000,Design,"Dec 2, 2024",Educational,FALSE,FALSE,41.0455,-81.5587
Blume on 16th,Columbus,OH,40000000,Under Construction,,"Multi-Residential, Parking Garage, Religious / Funeral",FALSE,FALSE,40.0015,-83.006
Midtown Lofts,Cleveland,OH,35000000,Pre-Construction/Negotiated,,"Multi-Residential, Retail, Sidewalks / Parking Lot, Clubhouse / Community Centers",FALSE,FALSE,41.5094,-81.6655
Morse Crossing Office /  Columbus,Columbus,OH,5000000,Pre-Construction/Negotiated,,Office,FALSE,FALSE,40.0436,-82.9147
Mission Point Buildings A and B,Beavercreek,OH,29000000,Design,,Office,FALSE,FALSE,39.7092,-84.0633
Gordon Square Canopy at Herman Park Apartments,Cleveland,OH,31500000,Pre-Construction/Negotiated,,Multi-Residential,FALSE,FALSE,41.4875,-81.7291
Canopy at Herman Park / Cleveland,Cleveland,OH,20000000,Pre-Construction/Negotiated,,"Multi-Residential, Office",FALSE,FALSE,41.4875,-81.7291
AG47 Phase II,Silverton,OH,20000000,Conceptual,,Multi-Residential,FALSE,FALSE,39.1925,-84.4034
Lexington LSD - New PK-6 & Abate/Demos,Lexington Township,OH,50847975,Post-Bid,"Mar 31, 2025",Educational,FALSE,FALSE,40.9603,-81.1417
J.T.M. Food Group Expansion / Harrison,Harrison,OH,108000000,Under Construction,,Industrial,FALSE,FALSE,39.251,-84.8084
Schaeffler / New Greenfield Manufacturing Facility,Dover,OH,230000000,Under Construction,,Manufacturing,FALSE,FALSE,40.5206,-81.474
Xavier College of Osteopathic Medicine Building,Cincinnati,OH,110000000,Under Construction,,Educational,FALSE,FALSE,39.1467,-84.4708
Hampton Inn & Suites and Home2 Suites by Hilton Hotel,Hamilton,OH,61000000,Conceptual,,Hotel / Motel,TRUE,FALSE,39.4009,-84.5641
"White Hall HVAC and Classroom Improvements Phases Two, Three and Four",Kent,OH,7000000,Post-Bid,,Educational,FALSE,FALSE,41.1469,-81.348
Cedar on Main Parkside,Lebanon,OH,38000000,Pre-Construction/Negotiated,,"Multi-Residential, Sidewalks / Parking Lot, Warehouse / Distribution, Playgrounds / Parks / Athletic Fields, Swimming Pools, Fitness / Rec Centers, Clubhouse / Community Centers",FALSE,FALSE,39.4354,-84.2407
RFQ Construction Manager at Risk- Madison-Plains Local School District Facility Project,Columbus,OH,55306452,Post-Bid,,Educational,FALSE,FALSE,39.9625,-83.0032
Performance Impact Arena and Pavilion,Columbus,OH,60000000,Design,,Arenas / Stadiums,FALSE,FALSE,40.1073,-83.0911
Kroger #955 / Hamilton,Hamilton,OH,35000000,Design,,"Retail, Service Station / Car Wash",FALSE,FALSE,39.4237,-84.5862
Kroger A-955 / Hamilton,Hamilton,OH,26179000,GC Bidding,"Mar 18, 2026",Retail,FALSE,FALSE,39.4234,-84.5876
Addition and Renovation to Western Row Campus for the Warren County ESC,Mason,OH,11747000,Bid Results,"Feb 17, 2026",Conference / Convention Centers,FALSE,FALSE,39.3361,-84.3283
Rinchem Chemical Warehouse / New Albany,Johnstown,OH,50000000,Conceptual,,Warehouse / Distribution,FALSE,FALSE,40.1059,-82.7276
LayerZero Power Systems Expansion,Streetsboro,OH,14000000,Conceptual,,Industrial,FALSE,FALSE,41.2637,-81.3726
Expansion Of StandardAero Component Services Facility / Sharonville,Sharonville,OH,8000000,Conceptual,,"Manufacturing, Industrial",FALSE,FALSE,39.2827,-84.4283
Sandusky Senior Lofts,Sandusky,OH,38390511,Pre-Construction/Negotiated,,Multi-Residential,FALSE,FALSE,41.4369,-82.6914
US Foods Kitchen Renovation / Cincinnati,Cincinnati,OH,5000000,Post-Bid,"Jan 23, 2026",Industrial,FALSE,FALSE,39.3014,-84.4458
Duke Energy Convention Center - Cincinnati Center City Development Corp,Cincinnati,OH,200000000,Under Construction,,"Restaurant, Conference / Convention Centers, Hotel / Motel",TRUE,FALSE,39.1005,-84.5178
RFQ Construction Manager at risk - Jonathan Alder LSD-ELPP-2026,Plain City,OH,70600000,Post-Bid,"Dec 29, 2025",Educational,FALSE,FALSE,40.0784,-83.2901
Richland Full Service Maintenance Facility Knox Full Service Maintenance Facility,Ashley,OH,24967050,Post-Bid,"Feb 25, 2026",Municipal,FALSE,FALSE,40.4173,-82.9071
Akron Citi Center Remodel,Akron,OH,35000000,Pre-Construction/Negotiated,,Multi-Residential,FALSE,FALSE,41.0826,-81.5198
Darana Hybrid Expansion,Hamilton,OH,21000000,Design,,"Office, Roads / Highways, Warehouse / Distribution, Playgrounds / Parks / Athletic Fields, Industrial",FALSE,FALSE,39.3713,-84.5353
Foundry Lofts,Cleveland,OH,60000000,Under Construction,,Multi-Residential,FALSE,FALSE,41.5034,-81.638
Alkire Rd Manufacturing and Commercial Use,Columbus,OH,6000000,Pre-Construction/Negotiated,,"Retail, Industrial",FALSE,FALSE,39.9625,-83.0032
Evergreen Crossing,Washington Court House,OH,31077506,Pre-Construction/Negotiated,,Multi-Residential,FALSE,FALSE,39.5462,-83.4359
310 Race Street Rehabilitation / Cincinnati,Cincinnati,OH,43000000,Design,,"Multi-Residential, Restaurant, Retail",FALSE,FALSE,39.0991,-84.5139
Town Club Powell,Powell,OH,15000000,Final Planning,,Multi-Residential,FALSE,FALSE,40.1681,-83.0898
AtriCure Inc Manufacturing Expansion,Mason,OH,45000000,Design,,Manufacturing,FALSE,FALSE,39.3282,-84.2908
Hooper Building Redevelopment / Cincinnati,Cincinnati,OH,15000000,Under Construction,,"Multi-Residential, Office, Restaurant, Retail, Warehouse / Distribution, Playgrounds / Parks / Athletic Fields, Fitness / Rec Centers",FALSE,FALSE,39.0993,-84.5156
RFQ Construction Manager at Risk - New Muskingum County Jail Project,S Zanesville,OH,5000000,Under Construction,"Mar 1, 2024",Jails / Prisons,FALSE,FALSE,39.9404,-82.0076
Franklin Commons,Franklin,OH,7500000,Award,"Nov 6, 2024",Multi-Residential,FALSE,FALSE,39.5551,-84.2817
New High School - Monroe Local School District,Monroe,OH,62100000,Pre-Construction/Negotiated,,Educational,FALSE,FALSE,39.4505,-84.3818
RFQ - CM at Risk Monroe Local School District,Monroe,OH,53360970,Post-Bid,"Mar 3, 2025",Educational,FALSE,FALSE,39.4505,-84.3818
Givaudan Expansion / Cincinnati,Cincinnati,OH,215000000,Under Construction,,Industrial,FALSE,FALSE,39.2341,-84.4384
Industrial Complex / North Olmsted,North Olmsted,OH,50000000,Under Construction,,Industrial,FALSE,FALSE,41.3909,-81.9607
High Street Mixed-Use,Columbus,OH,27300000,Design,,"Multi-Residential, Restaurant, Retail, Hotel / Motel",TRUE,FALSE,40.0176,-83.0126
Belle Avenue Manufacturing Expansion,Hamilton,OH,20000000,Conceptual,,Industrial,FALSE,FALSE,39.3732,-84.5509
Avon Lake Towne Center Redevelopment,Avon Lake,OH,20000000,Conceptual,,"Multi-Residential, Retail",FALSE,FALSE,41.4951,-82.0203
Park Village Apartment Renovations / Hough,Cleveland Hts,OH,18872200,Design,,Multi-Residential,FALSE,FALSE,41.511,-81.6228
9410 Hough Avenue Apartments,Cleveland Hts,OH,47000000,Under Construction,,Multi-Residential,FALSE,FALSE,41.5102,-81.6211
Green Oaks of Canal Winchester,Canal Winchester,OH,42528019,Under Construction,,Elderly Care / Assisted Living,FALSE,TRUE,39.907,-82.8252
Wesley Baymiller Project,Cincinnati,OH,11800000,Post-Bid,"Jan 29, 2026",Multi-Residential,FALSE,FALSE,39.1031,-84.512
Edison Boulevard,Twinsburg,OH,5000000,Pre-Construction/Negotiated,,Manufacturing,FALSE,FALSE,41.2934,-81.4366
Blackstone Commons,Washington Court House,OH,28076345,Pre-Construction/Negotiated,,Multi-Residential,FALSE,FALSE,39.5462,-83.4359
Griswold Grove,Elyria,OH,31955420,Pre-Construction/Negotiated,,Multi-Residential,FALSE,FALSE,41.4009,-82.1119
McGregor Landing,Elyria,OH,32500552,Design,,Multi-Residential,FALSE,FALSE,41.3986,-82.1198
Reid Flats / Cincinnati,Cincinnati,OH,37800000,Post-Bid,"Oct 17, 2025","Multi-Residential, Office, Retail",FALSE,FALSE,39.1032,-84.5065
Air Camp STEM Talent Development Complex / Dayton,Dayton,OH,38000000,Conceptual,,Educational,FALSE,FALSE,39.7589,-84.1916
Silver Birch of Amherst,Lorain,OH,36308700,Under Construction,,Elderly Care / Assisted Living,FALSE,TRUE,41.4133,-82.2306
Silver Birch Columbus,Columbus,OH,18200000,Pre-Construction/Negotiated,,Elderly Care / Assisted Living,FALSE,TRUE,39.9764,-82.8373
Bridge Park Y Block,Dublin,OH,50000000,Under Construction,,"Multi-Residential, Office, Parking Garage, Restaurant, Retail, Swimming Pools, Fitness / Rec Centers, Clubhouse / Community Centers, Hotel / Motel",TRUE,FALSE,40.0992,-83.1141
HCOM Translational Research Facility 2023,Athens,OH,66968706,Award,"Nov 17, 2023","Roads / Highways, Sidewalks / Parking Lot, Educational",FALSE,FALSE,39.3292,-82.1078
Fifth and Butler Apartments,Hamilton,OH,30000000,Design,,Multi-Residential,FALSE,FALSE,39.4003,-84.5572
College of Fine Arts Facilities Renewal 2024,Athens,OH,74500000,Conceptual,,Educational,FALSE,FALSE,39.3292,-82.1013
North Wilson Drive Development,Columbus,OH,9000000,Under Construction,,"Office, Warehouse / Distribution",FALSE,FALSE,39.9784,-83.1018
OSU Wexner Medical Center Rehabilitation Hospital,Columbus,OH,50000000,Conceptual,,Medical,FALSE,FALSE,39.9772,-82.9609
Cincinnati College Preparatory Academy - High School,Cincinnati,OH,18834000,Post-Bid,"Oct 24, 2025","Sidewalks / Parking Lot, Educational",FALSE,FALSE,39.1103,-84.528
Build One New Elementary School,Cincinnati,OH,35213604,Under Construction,"Sep 20, 2024",Educational,FALSE,FALSE,39.2396,-84.5898
Roche Drive Senior Affordable Housing / Columbus,Columbus,OH,32260081,Conceptual,,Multi-Residential,FALSE,FALSE,40.0862,-82.9899
Home2 Suites by Hilton / Cincinnati,Cincinnati,OH,20902000,Under Construction,,Hotel / Motel,TRUE,FALSE,39.1031,-84.512
Space Replacement/Consolidation One-Stop Student Services Addition/Renovation,Toledo,OH,8415000,Conceptual,,Educational,FALSE,FALSE,41.66,-83.6177
Miami Valley Christian Academy New High School - Miami Valley Christian Academy,Cincinnati,OH,21000000,Pre-Construction/Negotiated,,"Playgrounds / Parks / Athletic Fields, Educational, Theaters / Auditoriums, Laboratories, Fitness / Rec Centers",FALSE,FALSE,39.134,-84.3111
Gateway66 / League Park,Cleveland,OH,14550000,Pre-Construction/Negotiated,,Multi-Residential,FALSE,FALSE,41.5126,-81.6442
Oskamp Flats Project,Cincinnati,OH,23000000,Post-Bid,"Feb 18, 2025",Multi-Residential,FALSE,FALSE,39.1032,-84.5065
Distribution And Greenhouse Facility / Point Industrial Park,South Point,OH,9300000,Conceptual,,"Office, Manufacturing, Warehouse / Distribution, Industrial",FALSE,FALSE,38.4179,-82.5863
Pleasant Meadows Village Rehabilitation,Cuyahoga Falls,OH,15872020,Pre-Construction/Negotiated,,Multi-Residential,FALSE,FALSE,41.165,-81.4955
Kroger A-948 Glenway Ave - Remodel / Cincinnati,Cincinnati,OH,10480000,GC Bidding,"Mar 6, 2026",Retail,FALSE,FALSE,39.1427,-84.6228
Emerald Parkway Mixed-Use / Dublin,Dublin,OH,23700000,Design,,"Multi-Residential, Parking Garage, Restaurant, Retail, Playgrounds / Parks / Athletic Fields, Swimming Pools, Day Care Centers, Clubhouse / Community Centers",FALSE,FALSE,40.0992,-83.1141
Health Science Building - Columbus State Community College,Columbus,OH,60000000,Under Construction,,Educational,FALSE,FALSE,39.9674,-82.9906
Juvenile Correctional Facility - Ohio Department of Youth Services,Bedford Hts,OH,130000000,Under Construction,,Jails / Prisons,FALSE,FALSE,41.3987,-81.5536
Clover Glen II,Galloway,OH,28922769,Pre-Construction/Negotiated,,Multi-Residential,FALSE,FALSE,39.949,-83.1537
The Commons at Grant Renovation,Columbus,OH,8620000,Post-Bid,"Jan 31, 2025",Multi-Residential,FALSE,FALSE,39.9548,-82.9888
Scarborough Senior Housing - Rebid,Columbus,OH,15000000,Post-Bid,"Mar 28, 2025",Elderly Care / Assisted Living,FALSE,TRUE,39.9746,-82.9803
Westerville Road Apartments,Columbus,OH,23286619,Pre-Construction/Negotiated,,Multi-Residential,FALSE,FALSE,40.0368,-82.9536
Ford Pro Elite Commercial Vehicle Center / Valley View,Independence,OH,20000000,Under Construction,,"Retail, Service Station / Car Wash",FALSE,FALSE,41.3687,-81.6379
1325 West Broad Street Apartments,Columbus,OH,18000000,Final Planning,,Multi-Residential,FALSE,FALSE,39.9576,-83.036
Benjamin II,Columbus,OH,15000000,Final Planning,,Multi-Residential,FALSE,FALSE,39.957,-83.0138
Divert Inc. Anaerobic Digestion Facility,Harrison,OH,100000000,Conceptual,,Industrial,FALSE,FALSE,39.2275,-84.7826
RFP - Construction Management at Risk - Memorial Health System Women and Childrens Hospital,Belpre,OH,34000000,Final Planning,,Medical,FALSE,FALSE,39.2831,-81.6135
The Chillicothe Medical and Surgical Center,Chillicothe,OH,24000000,Conceptual,,Medical,FALSE,FALSE,39.3331,-82.9824
Saks Fifth Avenue Building Redevelopment,Cincinnati,OH,23000000,Under Construction,,"Office, Retail",FALSE,FALSE,39.1004,-84.5147
Summit View Office,Blue Ash,OH,16000000,Award,,Office,FALSE,FALSE,39.2217,-84.3806
The Meadows Housing Development,Batavia,OH,20800000,Post-Bid,"Oct 15, 2025","Multi-Residential, Sidewalks / Parking Lot",FALSE,FALSE,39.0794,-84.1466
Groveport Road Mixed-Use Development - City of Obetz,Obetz,OH,55000000,Conceptual,,"Medical, Restaurant, Retail, Hotel / Motel",TRUE,FALSE,39.8681,-82.9353
Jetway Commerce Center,Columbus,OH,10300000,Pre-Construction/Negotiated,,Industrial,FALSE,FALSE,40.0102,-82.9178
Buc-ee's #71 / Huber Heights,Huber Heights,OH,30000000,Under Construction,"May 24, 2024","Retail, Sidewalks / Parking Lot, Service Station / Car Wash",FALSE,FALSE,39.8699,-84.0552
Foundations Health Solutions Nursing Facility,Canton,OH,17000000,Conceptual,,Elderly Care / Assisted Living,FALSE,TRUE,40.8437,-81.4425
Cambridge II Apartments / Dublin,Dayton,OH,15000000,Under Construction,,Multi-Residential,FALSE,FALSE,39.7705,-84.2177
Home2 Suites / Columbus,Columbus,OH,22000000,Post-Bid,"Jan 3, 2025",Hotel / Motel,TRUE,FALSE,39.9904,-83.0271
RFP D/B - City Hall Copper Roof Design,Cleveland,OH,5000000,Post-Bid,"Dec 1, 2025",Municipal,FALSE,FALSE,41.5054,-81.6925
Greater Dayton Regional Transit Authority Paratransit Bus Garage,Dayton,OH,14378173,Award,"Jul 3, 2025","Sidewalks / Parking Lot, Transportation Terminals",FALSE,FALSE,39.7489,-84.1941
Hull Plaza Revitalization,Springfield,OH,28000000,Conceptual,,"Multi-Residential, Retail",FALSE,FALSE,39.9247,-83.8105
Pacific Manufacturing Expansion,Fairfield,OH,10000000,Under Construction,,Manufacturing,FALSE,FALSE,39.3377,-84.497
Casa Central,Cleveland,OH,30000000,Conceptual,,"Multi-Residential, Retail",FALSE,FALSE,41.4993,-81.6944
Midview Local Schools Athletic Facilities,Grafton,OH,27000000,Pre-Construction/Negotiated,,"Municipal, Playgrounds / Parks / Athletic Fields, Educational",FALSE,FALSE,41.2676,-82.0625
Rumpke Waste & Recycling Office Building,Cincinnati,OH,15000000,Design,,"Office, Industrial",FALSE,FALSE,39.2648,-84.5929
Wayfair - Polaris Fashion Place / Columbus,Columbus,OH,10000000,Pre-Construction/Negotiated,,Retail,FALSE,FALSE,40.1475,-82.9763
A Village North Phase 2,West Chester,OH,15000000,Under Construction,,"Restaurant, Retail",FALSE,FALSE,39.3713,-84.3912
High School #14 / Cleveland,Cleveland,OH,14400000,Final Planning,,Educational,FALSE,FALSE,41.4782,-81.7517
Memorial Health System Womens and Childrens Hospital,Belpre,OH,125000000,Pre-Construction/Negotiated,,Medical,FALSE,FALSE,39.2831,-81.6135
Case Elementary School Redevelopment,Cleveland,OH,7000000,Conceptual,,Medical,FALSE,FALSE,41.5138,-81.6611
Perrysburg Senior Lofts,Perrysburg,OH,20729933,Award,,Multi-Residential,FALSE,FALSE,41.5527,-83.6323
New Critical Access Hospital - Fayette County Memorial Hospital,Washington Court House,OH,70000000,Under Construction,,Medical,FALSE,FALSE,39.5374,-83.4376
Findlay Community Center / Cincinnati,Cincinnati,OH,50000000,Pre-Construction/Negotiated,,"Playgrounds / Parks / Athletic Fields, Swimming Pools, Fitness / Rec Centers, Clubhouse / Community Centers",FALSE,FALSE,39.1032,-84.5065
The Scharnberg Center,Cedarville,OH,40000000,Under Construction,,Educational,FALSE,FALSE,39.7442,-83.8068
"RFQ Contractors - Building 27 Repair/Renovation at Defense Supply Center Columbus (DSCC), Whitehall, Ohio",Columbus,OH,25000000,Conceptual,,Military,FALSE,FALSE,39.9819,-82.9048
Belle Oaks -Building #1,Richmond Heights,OH,18000000,Post-Bid,"Apr 11, 2025",Multi-Residential,FALSE,FALSE,41.5528,-81.5101
Cosm Immersive Entertainment Venue - Cleveland,Cleveland,OH,10000000,Design,,Amusement and Recreation,FALSE,FALSE,41.4983,-81.6899
Palmer Gardens Apartment Renovation,Toledo,OH,6500000,Pre-Construction/Negotiated,,Multi-Residential,FALSE,FALSE,41.666,-83.6097
New Junior High Building - Marion Local School District,Marion,OH,21310000,Under Construction,,Educational,FALSE,FALSE,40.5887,-83.1285
Skyridge Apartments,Cincinnati,OH,25000000,Post-Bid,"Nov 21, 2025","Multi-Residential, Clubhouse / Community Centers",FALSE,FALSE,39.1918,-84.6563
New Police Headquarters - City of Springfield,Springfield,OH,75000000,Design,,Fire / Police,FALSE,FALSE,39.9242,-83.8088
Salem Ave Senior Community / Dayton,Dayton,OH,12000000,Post-Bid,"Feb 6, 2026",Multi-Residential,FALSE,FALSE,39.774,-84.2164
Cleveland Heights Senior Housing,Cleveland Heights,OH,22151285,Final Planning,,Multi-Residential,FALSE,FALSE,41.5083,-81.5823
Restaurant Depot / Maumee,Maumee,OH,9422000,Post-Bid,"Dec 9, 2025",Restaurant,FALSE,FALSE,41.5874,-83.6773
Frank B. Willis Government Building,Delaware,OH,6504000,Award,"Oct 23, 2025",Municipal,FALSE,FALSE,40.3293,-83.0748
University Hospitals TriPoint Cancer Hub,Painesville,OH,39000000,Under Construction,,Medical,FALSE,FALSE,41.6634,-81.2473
Maywood Flats,South Euclid,OH,16700000,Pre-Construction/Negotiated,,"Multi-Residential, Office, Sidewalks / Parking Lot",FALSE,FALSE,41.5195,-81.5155
New PK-5 Elementary School and Abatement and Demolition of the former High School,Williamsburg,OH,26217434,Award,"Dec 18, 2025",Educational,FALSE,FALSE,39.0556,-84.0574
"Repair/Renovate AFMC Headquarters Building (B10262), Wright-Patterson AFB",Wright Patterson AFB,OH,117829400,Award,"Jan 19, 2023",Military,FALSE,FALSE,39.798,-84.0459
Hub 27,Cleveland,OH,20000000,Under Construction,,"Multi-Residential, Fitness / Rec Centers",FALSE,FALSE,41.4777,-81.7011
Prospiant New Facility / Roselawn Cincinnati,Cincinnati,OH,16200000,Under Construction,,Manufacturing,FALSE,FALSE,39.1917,-84.4642
The Depot on Detroit,Cleveland,OH,16000000,Pre-Construction/Negotiated,,Multi-Residential,FALSE,FALSE,41.4805,-81.7566
Hope Zone Youth Wellness & Enrichment Center,Dayton,OH,18700000,Design,,Clubhouse / Community Centers,FALSE,FALSE,39.7805,-84.2177
OSU - Martha Morehouse Tower Upgrades,Columbus,OH,19600000,Under Construction,"May 30, 2023",Educational,FALSE,FALSE,39.9612,-82.9988
Everhome Suites / Dayton,Dayton,OH,11500000,Post-Bid,"Feb 11, 2025",Hotel / Motel,TRUE,FALSE,39.8495,-84.1914
Hampton Inn & Suites - Winderly Lane / Pickerington,Pickerington,OH,14000000,Design,,"Sidewalks / Parking Lot, Hotel / Motel",TRUE,FALSE,39.9305,-82.7905
Renovation for Franklin Yards Apartments,Cleveland,OH,20000000,Under Construction,,"Multi-Residential, Sidewalks / Parking Lot",FALSE,FALSE,41.4864,-81.7113
RFQ Construction Manager - Ashtabula County Public Safety Center (Jail),Jefferson,OH,15000000,Post-Bid,"Jan 14, 2026",Jails / Prisons,FALSE,FALSE,41.7389,-80.7698
New Albany Village Center,New Albany,OH,16500000,Design,,,FALSE,FALSE,40.0834,-82.8084
Saint Ignatius High School / DiSanto Hall,Ohio City,OH,100000000,Under Construction,,Educational,FALSE,FALSE,40.7714,-84.6155
RFQ Construction Manager at Risk - Behavioral Health Wellness Center,Akron,OH,25000000,GC Bidding,"Mar 11, 2026",Medical,FALSE,FALSE,41.0966,-81.514
RFP Construction Manager at Risk - New Health and Wellness Center,Ada,OH,24700000,Post-Bid,"Apr 7, 2025",Educational,FALSE,FALSE,40.7655,-83.8241
Cleveland West Veterans Housing,Cleveland,OH,21300000,Under Construction,,"Multi-Residential, Sidewalks / Parking Lot",FALSE,FALSE,41.4639,-81.7377
Preserve of Hudson Townhomes,Hudson,OH,8000000,Pre-Construction/Negotiated,,Multi-Residential,FALSE,FALSE,41.2288,-81.4405
Vine and Polk Affordable Housing,Cincinnati,OH,20200000,Award,,"Multi-Residential, Retail",FALSE,FALSE,39.1238,-84.5148
Lofts on Marshall,Georgetown,OH,20300436,Design,,Multi-Residential,FALSE,FALSE,38.8599,-83.8991
Fourth Street Boutique Hotel Development,Cincinnati,OH,17000000,Under Construction,,Hotel / Motel,TRUE,FALSE,39.0996,-84.5139
Request for Qualifications for Construction manager at risk Services for Justice Center and City Hall Renovation Project,Barberton,OH,14302198,Post-Bid,"Oct 10, 2025",Municipal,FALSE,FALSE,41.0128,-81.6051
Scioto Valley Local Schools New Elementary School / Piketon,Piketon,OH,22000000,Under Construction,,Educational,FALSE,FALSE,39.0681,-83.0143
Commerce Center Drive Truck & Equipment Rental & Repair Facility,Franklin,OH,8000000,Award,,"Retail, Service Station / Car Wash",FALSE,FALSE,39.5704,-84.2658
At Main Apartments / Trotwood,Trotwood,OH,15500000,Final Planning,,"Multi-Residential, Conference / Convention Centers, Fitness / Rec Centers",FALSE,FALSE,39.7975,-84.2957
St. Paul Hotel / Dayton,Dayton,OH,22000000,Conceptual,,"Museum, Restaurant, Sidewalks / Parking Lot, Conference / Convention Centers, Hotel / Motel",TRUE,FALSE,39.7577,-84.183
Sage Gardens,Georgetown,OH,16717189,Pre-Construction/Negotiated,,Multi-Residential,FALSE,FALSE,38.8779,-83.9023
Extra Space Storage / Cincinnati,Cincinnati,OH,7974000,Award,"Jan 13, 2026",Warehouse / Distribution,FALSE,FALSE,39.156,-84.4387
Meals on Wheels Headquarters Relocation,Cincinnati,OH,30000000,Under Construction,,Manufacturing,FALSE,FALSE,39.1682,-84.4268
RFQ Design - Integrated Technology Education Center - Sinclair Community College,Dayton,OH,28000000,Conceptual,"Jan 30, 2026",Manufacturing,FALSE,FALSE,39.7571,-84.2003
Findlay Flats Renovation - Rebid 2025,Cincinnati,OH,15000000,Post-Bid,"Dec 16, 2025",Multi-Residential,FALSE,FALSE,39.1031,-84.512
Roofing & Sheet Metal,Cincinnati,OH,10000000,Post-Bid,"Dec 19, 2025",Office,FALSE,FALSE,39.1245,-84.5034
Kinsey Lofts,Cincinnati,OH,15900000,Design,,Multi-Residential,FALSE,FALSE,39.1242,-84.5011
Rock and Roll Hall of Fame and Museum Expansion,Cleveland,OH,135000000,Under Construction,,Museum,FALSE,FALSE,41.5085,-81.6955
Fox Fire Crossing,Marysville,OH,10649000,Design,,"Office, Retail",FALSE,FALSE,40.2105,-83.3729
B-K Tool & Design Expansion,Kalida,OH,5400000,Under Construction,,Industrial,FALSE,FALSE,40.9905,-84.2124
Whitestone Companies New Headquarters,Columbus,OH,5000000,Design,,Office,FALSE,FALSE,40.1398,-82.9664
Buckeye Swim Club's Aquatics Facility / Delaware,Delaware,OH,11000000,Pre-Construction/Negotiated,,"Medical, Office, Swimming Pools, Day Care Centers, Fitness / Rec Centers",FALSE,FALSE,40.2268,-83.0127
Paint Creek Crossing,Washington Court House,OH,10000000,Post-Bid,"Oct 7, 2025",Multi-Residential,FALSE,FALSE,39.5442,-83.4624
Specialty Lubricants Manufacturing and Office Facility,Macedonia,OH,15000000,Design,,"Office, Industrial",FALSE,FALSE,41.2961,-81.4789
Belmar Hill of Mt. Washington,Cincinnati,OH,13800000,Pre-Construction/Negotiated,,Multi-Residential,FALSE,FALSE,39.104,-84.3913
"Construction/Replacement of HVAC at Wright-Patterson Air Force Base, OH",Wpafb,OH,10000000,Post-Bid,"Sep 2, 2025",Military,FALSE,FALSE,39.8137,-84.0537
Case Western Reserve University School of Nursing Renovation,Sharonville,OH,20500000,Under Construction,,Educational,FALSE,FALSE,39.2728,-84.4116
Hocking Hills Complex,Logan,OH,54800000,Conceptual,,"Multi-Residential, Office, Amusement and Recreation, Restaurant, Retail, Sidewalks / Parking Lot, Water / Sewer",FALSE,FALSE,39.538,-82.4427
Bolthouse Academic Center,Cedarville,OH,36000000,Under Construction,,"Office, Educational, Laboratories",FALSE,FALSE,39.747,-83.8099
The Commodore,Dayton,OH,7400000,Under Construction,,"Multi-Residential, Retail, Hotel / Motel",TRUE,FALSE,39.769,-84.2066
Cedarville University - Bolthouse Academic Center,Cedarville,OH,35000000,Under Construction,,Educational,FALSE,FALSE,39.7443,-83.808
La Bamba Production facility,Cleveland,OH,6417000,Post-Bid,"May 9, 2025","Multi-Residential, Manufacturing, Retail",FALSE,FALSE,41.4659,-81.7295
Micro Center - Olentangy Plaza / Columbus,Columbus,OH,5000000,Post-Bid,"Feb 19, 2026",Retail,FALSE,FALSE,40.0606,-83.0403
Winchester Commons,Galion,OH,17254748,Design,,Multi-Residential,FALSE,FALSE,40.7207,-82.7849
Seton Square Portsmouth II,West Portsmouth,OH,18354034,Pre-Construction/Negotiated,,Multi-Residential,FALSE,FALSE,38.7622,-83.021
3rd Street Senior Housing / Cincinnati,Cincinnati,OH,20746380,Design,,"Multi-Residential, Retail, Fitness / Rec Centers, Clubhouse / Community Centers",FALSE,FALSE,39.0985,-84.5146
Northside Gateway,Cincinnati,OH,25361291,Pre-Construction/Negotiated,,"Multi-Residential, Retail",FALSE,FALSE,39.1578,-84.5388
Nehemiah Manufacturing Expansion,Cincinnati,OH,6000000,Conceptual,,Manufacturing,FALSE,FALSE,39.1051,-84.5459
Multi-unit Residential Development,Columbus,OH,5500000,Pre-Construction/Negotiated,,Multi-Residential,FALSE,FALSE,39.91,-82.9665
The Shoppes at Wedgewood,Powell,OH,20000000,Under Construction,,"Restaurant, Retail, Sidewalks / Parking Lot",FALSE,FALSE,40.1702,-83.0901
Columbus State CC Automotive Technologies Academic Center,Columbus,OH,19300000,Pre-Construction/Negotiated,"Jun 18, 2024","Educational, Laboratories",FALSE,FALSE,39.9674,-82.9906
New Washington Branch Project,Toledo,OH,16999999,Under Construction,"Jul 15, 2024",Library,FALSE,FALSE,41.7197,-83.6185
Rumpke Waste & Recycling Facility / Union Township,Miami Township,OH,12000000,Under Construction,,Industrial,FALSE,FALSE,39.1559,-84.272
Shoppes at Wedgewood,Powell,OH,11000000,Under Construction,,"Retail, Sidewalks / Parking Lot",FALSE,FALSE,40.1429,-83.0894
The Sandusky Recreation Center,Sandusky,OH,10383206,Pre-Construction/Negotiated,"Nov 13, 2025","Sidewalks / Parking Lot, Water / Sewer, Fitness / Rec Centers",FALSE,FALSE,41.4562,-82.7117
AutoZone #1926 Mega Remodel / Cincinnati,Cincinnati,OH,6446000,Post-Bid,"Feb 19, 2026",Retail,FALSE,FALSE,39.1024,-84.2739
Oregon Street Apartments,Cincinnati,OH,12524000,Design,,"Multi-Residential, Parking Garage, Sidewalks / Parking Lot",FALSE,FALSE,39.1059,-84.5004
Village at Secor,Toledo,OH,10000000,Design,,"Restaurant, Retail",FALSE,FALSE,41.6804,-83.624
Imaging Research Center,Cleveland Hts,OH,11125000,Pre-Construction/Negotiated,,Medical,FALSE,FALSE,41.4991,-81.6149
Belmar Trail Multi-Residential / Lebanon,Lebanon,OH,11900000,Under Construction,,Multi-Residential,FALSE,FALSE,39.4341,-84.1936
Whole Foods Fresh Market / West Chester,West Chester,OH,7000000,Post-Bid,"Jan 12, 2026",Retail,FALSE,FALSE,39.3669,-84.3544
Columbus College of Art and Design New Academic Building,Columbus,OH,15000000,Design,,Educational,FALSE,FALSE,39.9612,-82.9988
Western Reserve Building Renovations,Cleveland,OH,13000000,Pre-Construction/Negotiated,,Office,FALSE,FALSE,41.4972,-81.6992
Whole Foods Market at the Village North Development,Four Bridges,OH,10000000,Conceptual,,Retail,FALSE,FALSE,39.3675,-84.3493
County Owned facility,Lancaster,OH,10000000,Under Construction,,Municipal,FALSE,FALSE,39.7137,-82.5993
Warrensville Center Mixed-Use,University Heights,OH,13600000,Design,,"Multi-Residential, Retail, Sidewalks / Parking Lot",FALSE,FALSE,41.4935,-81.5363
White Chapel Apartments,Columbus,OH,11000000,Design,,Multi-Residential,FALSE,FALSE,39.9569,-83.0175
Central Station Renovation / Cincinnati,Cincinnati,OH,15048000,Post-Bid,"Nov 21, 2025",Office,FALSE,FALSE,39.1542,-84.6037
Wirt Road Realignment & Municipal Parking Lot Reconstruction,Groveport,OH,5275043,Award,"Sep 26, 2025","Roads / Highways, Sidewalks / Parking Lot, Water / Sewer",FALSE,FALSE,39.8511,-82.8823
New Truck Storage & Office Facility for Highland County Engineer,Hillsboro,OH,5029738,Award,"Sep 17, 2025","Municipal, Warehouse / Distribution",FALSE,FALSE,39.2009,-83.5983
Galaxy at Polaris Phase 2,Columbus,OH,116000000,Conceptual,,"Multi-Residential, Retail",FALSE,FALSE,40.1484,-82.962
Community Recreation and Wellness Center - City of Euclid,Euclid,OH,12785000,Under Construction,,Fitness / Rec Centers,FALSE,FALSE,41.6011,-81.5193
Honda of Bedford / Bedford Heights,Bedford Heights,OH,7881000,Post-Bid,"Feb 24, 2026",Retail,FALSE,FALSE,41.4086,-81.5177
Workforce Innovation Hub (WIH) Phase 1 - Dayton,Dayton,OH,22000000,Design,,"Office, Conference / Convention Centers",FALSE,FALSE,39.7589,-84.1916
Marion PSH (Permanent Supportive Housing),Marion,OH,15800800,Award,"Sep 16, 2025",Multi-Residential,FALSE,FALSE,40.5683,-83.1172
Toledo Building Redevelopment / Superior St,Toledo,OH,10300000,Pre-Construction/Negotiated,,"Multi-Residential, Office, Restaurant, Retail",FALSE,FALSE,41.6524,-83.5358
O'Reilly Auto Parts (FD1) #6882 / Fairfield,Fairfield,OH,7615000,Under Construction,"Aug 22, 2024",Retail,FALSE,FALSE,39.3467,-84.5428
Amazon - LCK054 / Dublin,Dublin,OH,10000000,Under Construction,,Data Centers,FALSE,FALSE,40.1018,-83.1993
Safety Facilities Construction and Renovation,Bowling Green,OH,28987700,Design,,Fire / Police,FALSE,FALSE,41.3748,-83.6517
Sheriffs Dispatch and Coroner's Office/Morgue Complex - Butler County,Hamilton,OH,34900000,Under Construction,,Municipal,FALSE,FALSE,39.3913,-84.515
OH History Center Renovation,Columbus,OH,19344373,Under Construction,,Museum,FALSE,FALSE,40.0077,-82.9874
The Mingo Residential Conversion - Phase 1,Cincinnati,OH,67000000,Pre-Construction/Negotiated,,"Multi-Residential, Sidewalks / Parking Lot, Swimming Pools",FALSE,FALSE,39.1342,-84.4765
Manufacturing Facility Expansion Development,Mason,OH,6200000,Pre-Construction/Negotiated,,Manufacturing,FALSE,FALSE,39.3281,-84.2906
Health & Public Safety Renovations and Expansion Project,Chillicothe,OH,25000000,Pre-Construction/Negotiated,,Educational,FALSE,FALSE,39.4397,-82.9611
Chester 82,Cleveland,OH,31700000,Under Construction,,Multi-Residential,FALSE,FALSE,41.5063,-81.6313
Dover Village Townhomes,Westlake,OH,8000000,Design,,Multi-Residential,FALSE,FALSE,41.4216,-81.9638
Addition & Renovations for Delaware Fire Station  #305 Rebid,Delaware,OH,14758305,Award,"Sep 30, 2025",Fire / Police,FALSE,FALSE,40.295,-83.0402
Fieldhouse and Related Improvements Project - West Liberty-Salem Local Schools,West Liberty,OH,5500000,Under Construction,"Nov 18, 2024",Educational,FALSE,FALSE,40.2612,-83.7544
The Hope Center / Joe Nuxhall Miracle League Fields Campus,Fairfield,OH,10000000,Design,,Fitness / Rec Centers,FALSE,FALSE,39.3422,-84.5841
Beachwood High School Fitness and Engineering Facilities Project,Beachwood,OH,7108800,Design,,Educational,FALSE,FALSE,41.4833,-81.5012
Fort Loramie Local Schools Athletic Complex Building & Associated Improvements,Fort Loramie,OH,7030843,Bid Results,"Jan 22, 2026",Educational,FALSE,FALSE,40.3475,-84.3661
Westin Cincinnati Renovation,Cincinnati,OH,50000000,Conceptual,,Hotel / Motel,TRUE,FALSE,39.1009,-84.512
APA Solar New Headquarters And Manufacturing Facility,Bryan,OH,19500000,Conceptual,,"Office, Solar Power Generation, Manufacturing, Industrial",FALSE,FALSE,41.4748,-84.5525
A New Administration Building for Allen County,Lima,OH,15028000,Award,"Oct 10, 2024","Office, Sidewalks / Parking Lot",FALSE,FALSE,40.7425,-84.1055
RFP CMAR - Renovation and Expansion of Studio Building Battelle Hall,Columbus,OH,15000000,Post-Bid,"Mar 18, 2025",Educational,FALSE,FALSE,39.9659,-82.9879
Pins Mechanical Co / District at Deerfield,Deerfield Township,OH,9000000,Under Construction,,"Amusement and Recreation, Restaurant, Sidewalks / Parking Lot",FALSE,FALSE,39.3108,-84.2963
Ryan Fireprotection Building Expansion,Fairfield,OH,9000000,Under Construction,,"Office, Warehouse / Distribution",FALSE,FALSE,39.3435,-84.4851
New Main Library,Canton,OH,7200000,Pre-Construction/Negotiated,,Library,FALSE,FALSE,40.8031,-81.3738
NOCAC Office & Child Development Center Renovations / Defiance,Defiance,OH,6154000,Award,"Jan 30, 2025","Playgrounds / Parks / Athletic Fields, Day Care Centers",FALSE,FALSE,41.2806,-84.3245
The Crossroads Center,Cincinnati,OH,10000000,Award,"Sep 12, 2024",Medical,FALSE,FALSE,39.1206,-84.5002
RFQ Design - B-Wing AHU Replacement,Cincinnati,OH,8000000,Conceptual,,Educational,FALSE,FALSE,39.1495,-84.5361
Kent City Hall - Rebid,Kent,OH,8797000,Award,"Oct 15, 2021",Municipal,FALSE,FALSE,41.1509,-81.3578
BOLT Innovation Center,Dayton,OH,82000000,Design,,"Conference / Convention Centers, Theaters / Auditoriums",FALSE,FALSE,39.7589,-84.1916
The Woodlands of Findlay Assisted Living Addition,Findlay,OH,5700000,Under Construction,,Elderly Care / Assisted Living,FALSE,TRUE,41.0465,-83.6044
Athens Co. Children Services Facility Addition & Renovation,Athens,OH,5483000,Post-Bid,"Feb 3, 2025",Municipal,FALSE,FALSE,39.3292,-82.1013
Empire Apartments / Columbus,Columbus,OH,5000000,Design,,Multi-Residential,FALSE,FALSE,39.9657,-83.0018
Headquarters Development,Cincinnati,OH,16000000,Pre-Construction/Negotiated,,Municipal,FALSE,FALSE,39.107,-84.5633
Coshocton Port Authority Coshocton Collaborative,Coshocton,OH,5097584,Award,"Dec 19, 2023",Municipal,FALSE,FALSE,40.2739,-81.8621
Green Oaks of Grove City,Grove City,OH,10000000,Design,,Multi-Residential,FALSE,FALSE,39.893,-83.119
City Safety Services Complex - City of Cortland,Cortland,OH,10000000,Post-Bid,"Apr 2, 2025",Fire / Police,FALSE,FALSE,41.338,-80.723
Q Laboratories Building,Cincinnati,OH,7600000,Conceptual,,Laboratories,FALSE,FALSE,39.1185,-84.5484
Mach 1 Express Wash / Toledo - Rebid,Toledo,OH,6800000,Post-Bid,"Jun 1, 2022",Service Station / Car Wash,FALSE,FALSE,41.7204,-83.6061
New Branch Building,Pickerington,OH,25000000,Award,"Mar 18, 2025","Solar Power Generation, Sidewalks / Parking Lot, Library",FALSE,FALSE,39.9098,-82.7754
RFQ Design - New Public Safety Center,Boston Heights,OH,12000000,Conceptual,,Fire / Police,FALSE,FALSE,41.2632,-81.5129
Verdynt Bio New Biotech Facility,East Cleveland,OH,12000000,Conceptual,,Laboratories,FALSE,FALSE,41.5172,-81.5954
New County Archives/Records Storage Building - Columbiana County,Lisbon,OH,6800000,Under Construction,,Warehouse / Distribution,FALSE,FALSE,40.7733,-80.7622
Construction of Base Fire Station- Youngstown Air Reserve Station,Vienna,OH,25000000,Conceptual,,Fire / Police,FALSE,FALSE,41.2477,-80.6715
"Base Fire Station - Youngstown ARS, OH",Vienna,OH,16305510,Award,"May 13, 2025",Military,FALSE,FALSE,41.2712,-80.6758
Capital Kia,Columbus,OH,6000000,Pre-Construction/Negotiated,,Retail,FALSE,FALSE,40.0575,-82.9277
Xenia Medical Center,Xenia,OH,26000000,Pre-Construction/Negotiated,,Medical,FALSE,FALSE,39.6822,-83.9678
R&R Headquarters,Dayton,OH,15000000,Design,,"Office, Warehouse / Distribution, Service Station / Car Wash",FALSE,FALSE,39.8419,-84.1859
RFQ Construction Manager At Risk - Associated with the Design and Construction of the Fire & Emergency Medical Services Center (Fire/EMS Center ),North Canton,OH,10000000,Post-Bid,"Mar 8, 2024",Medical,FALSE,FALSE,40.8803,-81.4034
Sears - Unit #100 Expansion - Ohio Valley Mall,Saint Clairsville,OH,5000000,Post-Bid,"Jan 21, 2025","Retail, Water / Sewer",FALSE,FALSE,40.0689,-80.8675
Santa Maria Community Services Office Building,Cincinnati,OH,5000000,Sub-Bidding,"Feb 27, 2026",Office,FALSE,FALSE,39.1119,-84.5625
Universal 1 Credit Union Renovation / Dayton,Dayton,OH,5199115,Under Construction,,Financial,FALSE,FALSE,39.7387,-84.1866
Mahoning County Veterans Service Commission Renovation,Youngstown,OH,5000000,Post-Bid,"Mar 12, 2025",Municipal,FALSE,FALSE,41.1254,-80.6634
RFQ Construction Manager at Risk- Health & Public Safety Renovations and Expansion Project,Chillicothe,OH,25000000,Final Planning,"Nov 17, 2025",Educational,FALSE,FALSE,39.4397,-82.9611
New Construction of the Parma Heights Branch Library Facility - Cuyahoga County Public Library,Cleveland,OH,11500000,Under Construction,"Sep 1, 2023",Library,FALSE,FALSE,41.4211,-81.7253
Bexley Mixed Use on Main Street,Bexley,OH,77000000,Under Construction,,"Multi-Residential, Office, Parking Garage, Restaurant, Retail, Sidewalks / Parking Lot",FALSE,FALSE,39.9575,-82.9406
Police/Public Safety Facility - 408F-001 - City of Lebanon,Lebanon,OH,13000000,Conceptual,,Fire / Police,FALSE,FALSE,39.4353,-84.203
Renovate Operating Rooms,Cleveland Hts,OH,10000000,Final Planning,,"Medical, Military",FALSE,FALSE,41.5138,-81.6138
Courseview Drive Medical Technology Building Renovation,Mason,OH,6100000,Conceptual,,Office,FALSE,FALSE,39.3532,-84.2751
Kyles Station Corner,Liberty Twp,OH,5800000,Under Construction,,"Restaurant, Retail",FALSE,FALSE,39.4186,-84.4597
Transportation & Maintenance Facility - Chardon City Schools,Chardon,OH,5000000,Under Construction,,Educational,FALSE,FALSE,41.5852,-81.2086
Buckeye Water District Administration and Equipment Building,Wellsville,OH,0,Final Planning,"Oct 29, 2025",Municipal,FALSE,FALSE,40.6379,-80.6778
New Fire Station # 3 - City of Mentor,Mentor,OH,13000000,Design,,Fire / Police,FALSE,FALSE,41.6523,-81.3646
Medina Road Mixed Use Development,Akron,OH,6200000,Conceptual,,"Restaurant, Retail, Service Station / Car Wash",FALSE,FALSE,41.1366,-81.6461
Residential Tower,Cleveland Hts,OH,100000000,Pre-Construction/Negotiated,,Multi-Residential,FALSE,FALSE,41.4995,-81.6126
RFQ - Architect and Design Team - Saint Luke's Foundation New Headquarters,Cleveland,OH,17000000,Conceptual,,Office,FALSE,FALSE,41.4882,-81.6097
Crossroad Health Center,Cincinnati,OH,15600000,Design,,"Medical, Sidewalks / Parking Lot",FALSE,FALSE,39.1148,-84.5172
Findlay Market Operations Center,Cincinnati,OH,10000000,Conceptual,,"Municipal, Office",FALSE,FALSE,39.116,-84.5187
YMCA  Early Learning Center Development / Findlay,Findlay,OH,10000000,Under Construction,,Clubhouse / Community Centers,FALSE,FALSE,41.0348,-83.6462
Shenandoah High School Academic Addition Project,Sarahsville,OH,9969450,Bid Results,"May 29, 2025","Sidewalks / Parking Lot, Water / Sewer, Educational",FALSE,FALSE,39.809,-81.4485
The Rocket Community Wellness Center,Fayetteville,OH,10842473,Under Construction,,Educational,FALSE,FALSE,39.1835,-83.9311
Aldi #95 / Amelia,Amelia,OH,5000000,Award,"Jan 30, 2025",Retail,FALSE,FALSE,39.0385,-84.2318
Aldi #102 / Hillsboro,Hillsboro,OH,5000000,Award,"Jan 28, 2025",Retail,FALSE,FALSE,39.2269,-83.6142
Pigeon Creek Mixed Use,Norton,OH,50000000,Pre-Construction/Negotiated,,"Multi-Residential, Retail, Sidewalks / Parking Lot, Playgrounds / Parks / Athletic Fields, Clubhouse / Community Centers",FALSE,FALSE,41.0321,-81.6381
CitiCenter Redevelopment,Akron,OH,28000000,Pre-Construction/Negotiated,,"Multi-Residential, Retail",FALSE,FALSE,41.081,-81.5177
Monterey Drive Development / Dublin,Dublin,OH,20000000,Design,,"Multi-Residential, Office, Retail, Sidewalks / Parking Lot",FALSE,FALSE,40.0992,-83.1188
191 W Bridge Street Mixed-Use,Dublin,OH,15000000,Design,,"Multi-Residential, Office, Retail, Sidewalks / Parking Lot",FALSE,FALSE,40.1025,-83.1406
Belmont College Construction Trades Building,Saint Clairsville,OH,7583800,Bid Results,"Aug 5, 2025",Educational,FALSE,FALSE,40.0803,-80.9018
Belmont College - Construction Trades Building,Saint Clairsville,OH,6674297,Final Planning,"Feb 24, 2025",Educational,FALSE,FALSE,40.0767,-80.9653
Alexis Road New Library / Toledo,Toledo,OH,10600000,Design,,Library,FALSE,FALSE,41.72,-83.6179
Pleasant House,Cincinnati,OH,8900000,Final Planning,,Multi-Residential,FALSE,FALSE,39.1113,-84.518
Capital Improvements Project (the Project),Groveport,OH,14250000,Design,,"Educational, Laboratories",FALSE,FALSE,39.8866,-82.8842
Hambden Fire Department New Fire Station,Chardon,OH,8750000,GC Bidding,"Feb 27, 2026",Fire / Police,FALSE,FALSE,41.6076,-81.1478
A New Pickaway County Fair Multi-Purpose Building,Circleville,OH,6997000,GC Bidding,"Mar 13, 2026","Multi-Residential, Municipal",FALSE,FALSE,39.601,-82.9262
Roosevelt School Apartments,Lima,OH,5900000,Pre-Construction/Negotiated,,Multi-Residential,FALSE,FALSE,40.739,-84.1364
Renovate Facility 20145 at Wright Patterson Air Force Base,Wright Patterson AFB,OH,16042500,Award,"Aug 13, 2025",Military,FALSE,FALSE,39.8137,-84.0537
Downtown Columbus Residential Tower,Columbus,OH,10000000,Pre-Construction/Negotiated,,"Multi-Residential, Office, Parking Garage, Retail",FALSE,FALSE,39.9578,-82.9943
Dialysis Clinic Inc (DCI) - East McMillan Street / Cincinnati,Cincinnati,OH,5000000,Post-Bid,"Jan 10, 2025",Medical,FALSE,FALSE,39.1265,-84.4984
New District Cooling Plant at Wright Patterson AFB,Wright Patterson AFB,OH,0,Final Planning,,Military,FALSE,FALSE,39.8137,-84.0537
Industrial Park Project  / Piqua Industrial Park,Piqua,OH,5000000,Conceptual,,Industrial,FALSE,FALSE,40.1404,-84.2207
3560 Washington Townhome Project / Cincinnati,Cincinnati,OH,5010000,GC Bidding,"Feb 25, 2026",Multi-Residential,FALSE,FALSE,39.147,-84.4946
PepsiCo Foods New Warehouse / Circleville,Circleville,OH,10000000,Conceptual,,Industrial,FALSE,FALSE,39.5799,-82.9486
Construction of a Giraffe Barn,Cumberland,OH,0,Post-Bid,"Feb 27, 2025",Industrial,FALSE,FALSE,39.8295,-81.7331
Hilltop Police Substation / Westerville,Westerville,OH,7618000,Post-Bid,"Mar 31, 2025",Fire / Police,FALSE,FALSE,40.1316,-82.99
Miami County One Stop Center,Troy,OH,6270000,Award,"May 10, 2022",Municipal,FALSE,FALSE,40.0395,-84.2033
The Cove,Cincinnati,OH,20000000,Design,,"Multi-Residential, Office, Restaurant, Retail, Sidewalks / Parking Lot",FALSE,FALSE,39.0941,-84.2809
RFQ Design - Greene County Vocational School District Culinary Expansion Project,Xenia,OH,5000000,Conceptual,,Educational,FALSE,FALSE,39.6623,-83.9157
Dental Simulation Space Modernization,Columbus,OH,6100000,Pre-Construction/Negotiated,"Apr 21, 2025",Educational,FALSE,FALSE,39.9961,-83.0164
Construction of New Fire Station - City of Rocky River,Rocky River,OH,15000000,Under Construction,,Fire / Police,FALSE,FALSE,41.4679,-81.854
RFQ Construction Manager at Risk - Columbus Police Substation #6 (Easton) Rebid,Columbus,OH,14000000,GC Bidding,"Mar 3, 2026","Sidewalks / Parking Lot, Water / Sewer, Fire / Police",FALSE,FALSE,40.0492,-82.9281
Jackson Local Schools  New Transportation Center,Massillon,OH,6200000,Award,"Feb 2, 2023",Educational,FALSE,FALSE,40.8606,-81.4906
North Market Expansion,Columbus,OH,430000000,Under Construction,,Restaurant,FALSE,FALSE,39.9725,-83.006
RFP -A/E- Interior Renovation and Addition At The Main Hospital,Coldwater,OH,12000000,Conceptual,,Medical,FALSE,FALSE,40.4806,-84.6392
New Fire Station - Madison Township,Madison,OH,7500000,Design,,Fire / Police,FALSE,FALSE,41.7712,-81.0498
Stillhaus Spa / Columbus,Columbus,OH,5000000,Design,,"Restaurant, Fitness / Rec Centers",FALSE,FALSE,39.9515,-82.9984
Churchill Gateway - Glenville Neighborhood,Cleveland Hts,OH,19614400,Under Construction,,Multi-Residential,FALSE,FALSE,41.5202,-81.6135
Paradigm / Cincinnati,Cincinnati,OH,15048000,Post-Bid,"Oct 29, 2025",Office,FALSE,FALSE,39.1542,-84.6037
Central Station Pickle Bar / Cincinnati,Cincinnati,OH,15048000,Post-Bid,"Oct 29, 2025",Retail,FALSE,FALSE,39.1542,-84.6037
Sheetz#431 / North Canton,North Canton,OH,9517953,Final Planning,,"Sidewalks / Parking Lot, Service Station / Car Wash",FALSE,FALSE,40.8915,-81.4201
RG Drage Career Technical Center Classroom / HVAC Lab Addition,Massillon,OH,5050000,Post-Bid,"May 14, 2024",Educational,FALSE,FALSE,40.7741,-81.4861
Trumbull Career and Technical Center Expansion,Warren,OH,5126000,Under Construction,,Educational,FALSE,FALSE,41.2805,-80.8248
Police Substation Hilltop Area,Columbus,OH,13942258,Under Construction,"Apr 21, 2025",Fire / Police,FALSE,FALSE,39.9487,-83.0486
Milo Grogan Industrial Warehouse,Columbus,OH,7000000,Conceptual,,Industrial,FALSE,FALSE,39.9802,-82.9833
RFQ Design - Construction of a New County Administration Building,Ashland,OH,6000000,Conceptual,,Municipal,FALSE,FALSE,40.8532,-82.315
Tiffin Renovation,Tiffin,OH,6300000,Post-Bid,"Jan 4, 2026",Municipal,FALSE,FALSE,41.1145,-83.178
Court Street Hotel,Medina,OH,23700000,Under Construction,,"Sidewalks / Parking Lot, Hotel / Motel",TRUE,FALSE,41.137,-81.8647
Cedarville and Clifton Historic Restorations,Cedarville,OH,17800000,Under Construction,"Aug 26, 2024",Museum,FALSE,FALSE,39.7442,-83.8085
Lightbridge Academy / Dublin,Dublin,OH,10000000,Final Planning,,"Sidewalks / Parking Lot, Playgrounds / Parks / Athletic Fields, Day Care Centers",FALSE,FALSE,40.0876,-83.1244
1922 Club,Columbus,OH,11431584,Under Construction,"Jan 3, 2025",Arenas / Stadiums,FALSE,FALSE,40.0025,-83.0203
Al Ihsan School Expansion,Cleveland,OH,5000000,Design,,"Office, Educational, Laboratories",FALSE,FALSE,41.4304,-81.8253
Akron Zoo Veterinary Hospital,Akron,OH,11950000,Under Construction,,"Medical, Sidewalks / Parking Lot",FALSE,FALSE,41.0724,-81.5572
Holzer Child Care Center New Building and Site Development,Gallipolis,OH,5400000,Post-Bid,"Mar 18, 2025",Elderly Care / Assisted Living,FALSE,TRUE,38.8463,-82.2373
CRMF New Railcar Modifications,Cleveland,OH,9505365,Award,"Dec 19, 2025",Transportation Terminals,FALSE,FALSE,41.4821,-81.6482
Renovate MICU/SICU,Cincinnati,OH,10000000,Post-Bid,"Jan 16, 2026","Medical, Military",FALSE,FALSE,39.1398,-84.5089
Xaloy R&D Innovation Center Addition / Austintown,Youngstown,OH,7500000,Conceptual,,Industrial,FALSE,FALSE,41.1101,-80.7802
RFQ Construction Manager at Risk-Visitors Bleachers Renovations,Warren,OH,6000000,Post-Bid,"Jun 30, 2025",Arenas / Stadiums,FALSE,FALSE,41.2376,-80.8184
Loveland Madeira Road Pediatric Primary Care Remodel,Loveland,OH,6000000,Under Construction,,Medical,FALSE,FALSE,39.251,-84.2955
Ursa Major Rocket Propulsion Research and Development Center / Boardman,Youngstown,OH,14500000,Conceptual,,Industrial,FALSE,FALSE,40.9923,-80.6503
Yellow Springs Senior Citizens New Facility,Yellow Springs,OH,5000000,Design,,Elderly Care / Assisted Living,FALSE,TRUE,39.801,-83.8899
RFQ Design - Agriculture Learning Center,Andover,OH,8850000,Conceptual,,Educational,FALSE,FALSE,41.611,-80.5848
Penta Career Center New E-Mobility Lab Perrysburg,Perrysburg,OH,8600000,Under Construction,,"Educational, Laboratories",FALSE,FALSE,41.557,-83.6272
Zanesville Downtown Gateway District Project,S Zanesville,OH,10293680,Under Construction,"Jun 28, 2024",Roads / Highways,FALSE,FALSE,39.9403,-82.0132
Renovate Materials Analysis Lab F/20071 Wright-Patterson AFB,Dayton,OH,13441400,Award,"Dec 16, 2024","Military, Laboratories",FALSE,FALSE,39.7589,-84.1916
Diabetes and Endocrinology Center of Ohio Expansion,Worthington,OH,5000000,Pre-Construction/Negotiated,,Medical,FALSE,FALSE,40.1092,-83.0125
RFP Construction Manager - Coos County Transit Center & Mobility Hub,Ashley,OH,8000000,Post-Bid,"Jan 28, 2026",Transportation Terminals,FALSE,FALSE,40.4173,-82.9071
Miami Township Branch Library Building,Cleves,OH,7000000,Pre-Construction/Negotiated,,Library,FALSE,FALSE,39.1595,-84.7497
Buffalo Wild Wings / Ironton,Ironton,OH,7000000,Post-Bid,"Dec 18, 2025",Restaurant,FALSE,FALSE,38.5114,-82.667
RFQ Construction Manager - Community Learning & History Center,Leetonia,OH,5000000,Post-Bid,"Jan 27, 2026",Clubhouse / Community Centers,FALSE,FALSE,40.8604,-80.7548
RFP D/B - Construction Addition for AIMR-2C Research-F/20653,Wright Patterson AFB,OH,7514099,Award,"Jan 10, 2025",Military,FALSE,FALSE,39.8137,-84.0537
Benham's Grove Improvements Project,Centerville,OH,5977000,Award,"Dec 13, 2023",Playgrounds / Parks / Athletic Fields,FALSE,FALSE,39.6401,-84.1752
Wawa / Miami Township,Miamisburg,OH,7500000,Final Planning,,"Retail, Service Station / Car Wash",FALSE,FALSE,39.6132,-84.2265
Wawa / Clinton County,Chester Township,OH,7000000,Conceptual,,"Retail, Service Station / Car Wash",FALSE,FALSE,39.4845,-83.9367
Sgt Clean Car Wash / Fairlawn,Fairlawn,OH,5000000,Design,,Service Station / Car Wash,FALSE,FALSE,41.1276,-81.6076
RFQ Construction Manager at Risk - Poindexter Village African American Museum,Columbus,OH,16000000,Post-Bid,"Jan 20, 2026",Museum,FALSE,FALSE,39.972,-82.9677
Apparatus Bay Floor Replacement: Mansfield Central Fire Station,Mansfield,OH,17870000,Bid Results,"Dec 15, 2023",Fire / Police,FALSE,FALSE,40.7593,-82.5105
Wren Building Mixed Use,Springfield,OH,32000000,Under Construction,,"Multi-Residential, Retail",FALSE,FALSE,39.9231,-83.8091
Hibachi Grill Interior Renovation / Cincinnati,Cincinnati,OH,0,Post-Bid,"Feb 2, 2026",Restaurant,FALSE,FALSE,39.132,-84.6117
Rehabilitate Charles Young House,Xenia,OH,5447400,Award,"Jul 19, 2021",Museum,FALSE,FALSE,39.7073,-83.8903
Main Street Mixed-Use Development Phase II,Dayton,OH,14000000,Under Construction,,"Multi-Residential, Residential Subdivision, Service Station / Car Wash",FALSE,FALSE,39.7721,-84.1954
RFQ D/B - Market Survey - Leased Temporary Facility Area B,Wright Patterson AFB,OH,25000000,Conceptual,,Military,FALSE,FALSE,39.8137,-84.0537
Johnson Memorial Library Interior Alterations,Hicksville,OH,0,Post-Bid,"Apr 9, 2025",Library,FALSE,FALSE,41.2928,-84.7637
Four County Career Center Additions & Renovations,Archbold,OH,17004363,Under Construction,"Aug 29, 2024",Educational,FALSE,FALSE,41.4527,-84.3031
Kettering Field Sports Complex Phase 1 Rebid,Dayton,OH,6420000,Bid Results,"Mar 20, 2025","Sidewalks / Parking Lot, Playgrounds / Parks / Athletic Fields",FALSE,FALSE,39.7778,-84.1918
NEOMED Chiller Plant Upgrades,Rootstown,OH,5500000,Design,,Educational,FALSE,FALSE,41.1049,-81.244
Village Of Mantua Wastewater Treatment Plant Headworks & Electrical Improvements,Mantua,OH,6788600,Award,"Nov 6, 2024",Water / Sewer,FALSE,FALSE,41.2836,-81.2189
Stillwater Lift Station and Force Main Replacement,Dayton,OH,13963761,Award,"Jan 8, 2025",Water / Sewer,FALSE,FALSE,39.7589,-84.1916
Intel Silicon Heartland Chip Factory Development - Future Phases,New Albany,OH,28000000000,Award,,Manufacturing,FALSE,FALSE,40.0757,-82.8102
Intel Corp / Johnstown Gateway Planned District,Johnstown,OH,20000000000,Pre-Construction/Negotiated,,"Multi-Residential, Office, Retail, Playgrounds / Parks / Athletic Fields, Industrial",FALSE,FALSE,40.1537,-82.6852
Meta-Oklo Nuclear Power Campus - Oklo,Cincinnati,OH,6000000000,Conceptual,,Data Centers,FALSE,FALSE,39.1031,-84.512
Graphite One Product Manufacturing Facility / Weathersfield Township,Warren,OH,3500000000,Conceptual,,Manufacturing,FALSE,FALSE,41.2367,-80.8162
Microsoft Data Center Development / Hebron,Hebron,OH,3000000000,Under Construction,,Data Centers,FALSE,FALSE,39.9671,-82.4955
CLEvolution,Cleveland,OH,3000000000,Design,,"Sidewalks / Parking Lot, Transportation Terminals",FALSE,FALSE,41.4036,-81.8504
Bluegrass Power / Jefferson Township,Jeffersonville,OH,3000000000,Pre-Construction/Negotiated,,Power Plant,FALSE,FALSE,39.6539,-83.5632
Amazon Data Center - Project Galaxy / Sidney,Sidney,OH,3000000000,Design,,Data Centers,FALSE,FALSE,40.2842,-84.1555
Huntington Bank Stadium,Brook Park,OH,2400000000,Award,,Arenas / Stadiums,FALSE,FALSE,41.4061,-81.8291
Google Data Center - New Albany International Business Park,New Albany,OH,2300000000,Conceptual,,Data Centers,FALSE,FALSE,40.096,-82.7344
Vantage Data Center / Fairfield County,Walnut Township,OH,2100000000,Conceptual,,Data Centers,FALSE,FALSE,39.8999,-82.5626
Cleveland Hopkins International Airport New Concourses - City of Cleveland,Cleveland,OH,2000000000,Conceptual,,Transportation Terminals,FALSE,FALSE,41.4809,-81.693
Amazon Web Services Data Center / Sunbury Business and Technology Park,Galena,OH,2000000000,Conceptual,,Data Centers,FALSE,FALSE,40.218,-82.8478
Haslam Sports Group Mixed-use Entertainment District Phase I & II Brook Park,Brook Park,OH,2000000000,Pre-Construction/Negotiated,,"Multi-Residential, Office, Restaurant, Retail, Arenas / Stadiums, Hotel / Motel",TRUE,FALSE,41.3984,-81.8046
Socrates South Power Generation Project,Pataskala,OH,1600000000,Under Construction,,Power Plant,FALSE,FALSE,40.0567,-82.6602
RFP - Cleveland Soccer Group Headquarters and Training Facility,Cleveland,OH,1400000000,Conceptual,,"Medical, Office, Playgrounds / Parks / Athletic Fields, Fitness / Rec Centers, Clubhouse / Community Centers",FALSE,FALSE,41.4993,-81.6944
Tri-County Mall,Cincinnati,OH,1300000000,Pre-Construction/Negotiated,,"Medical, Multi-Residential, Restaurant, Retail, Sidewalks / Parking Lot",FALSE,FALSE,39.2899,-84.4661
Springfield Data Center,Springfield,OH,1300000000,Conceptual,,Data Centers,FALSE,FALSE,39.9234,-83.8099
Project Cosmos/ Marysville,Marysville,OH,1000000000,Conceptual,,Data Centers,FALSE,FALSE,40.2201,-83.3259
AI Supercluster Data Center / Springfield,Dayton,OH,901300000,Conceptual,,Data Centers,FALSE,FALSE,39.7592,-84.1936
Heritage Bank Arena Replacement,Cincinnati,OH,800000000,Conceptual,,Arenas / Stadiums,FALSE,FALSE,39.1173,-84.5301
Heritage Bank Center Revelopment,Cincinnati,OH,800000000,Design,,Arenas / Stadiums,FALSE,FALSE,39.0981,-84.5044
Project Accordion / Bowling Green,Bowling Green,OH,750000000,Final Planning,,,FALSE,FALSE,41.4584,-83.6357
HAM WHV New Viaduct Construction,Cincinnati,OH,715170321,Under Construction,,"Roads / Highways, Bridges / Tunnels",FALSE,FALSE,39.1248,-84.5389
Apex Emerson Creek Wind Project,Norwalk,OH,615000000,Under Construction,,Wind Power Generation,FALSE,FALSE,41.2426,-82.6157
Convention Headquarters Hotel Development,Cincinnati,OH,536000000,Conceptual,,"Office, Retail, Hotel / Motel",TRUE,FALSE,39.0999,-84.5172
The Node Mixed-Use Development,Cincinnati,OH,500000000,Conceptual,,"Multi-Residential, Office, Parking Garage, Retail, Hotel / Motel",TRUE,FALSE,39.1349,-84.4969
Amazon Data Center /  Jeffersonville,Jeffersonville,OH,500000000,Conceptual,,Data Centers,FALSE,FALSE,39.6461,-83.5484
Jerome Township Innovation District,Plain City,OH,500000000,Pre-Construction/Negotiated,,"Multi-Residential, Retail, Roads / Highways, Industrial",FALSE,FALSE,40.1316,-83.2292
RFQ Engineering - Professional Engineering Services-Bethesda Main Street Reconstruction (Plan-Design-Bid-Build),Bethesda,OH,488000000,Conceptual,"Feb 6, 2026",Roads / Highways,FALSE,FALSE,39.9859,-81.0757
Shook Construction 2026 Project Portfolio - Shook Construction,Dayton,OH,450000000,Pre-Construction/Negotiated,,"Data Centers, Manufacturing",FALSE,FALSE,39.7592,-84.1936
Berlin Mixed Use Development,Berlin Township,OH,397000000,Design,,"Multi-Residential, Industrial",FALSE,FALSE,40.2591,-82.9854
Biotech Cincinnati Life Science Research Park for Innovation / Cincinnati,Cincinnati,OH,390000000,Pre-Construction/Negotiated,,"Multi-Residential, Office, Parking Garage, Retail, Laboratories",FALSE,FALSE,39.1342,-84.4974
RFQ Construction Manager - A Consultant to Provide Construction Management Services For Paycor Stadium Renovations,Cincinnati,OH,350000000,Final Planning,"Oct 6, 2025",Arenas / Stadiums,FALSE,FALSE,39.0954,-84.5162
Avon Hospital Campus Expansion,Avon,OH,340000000,Conceptual,,"Medical, Parking Garage, Laboratories",FALSE,FALSE,41.4691,-81.9818
RFQ Construction Manager at Risk - Western Hills Viaduct Replacement,Cincinnati,OH,335000000,Award,"Sep 15, 2022","Roads / Highways, Bridges / Tunnels",FALSE,FALSE,39.1087,-84.5215
Major Reconstruction - IR 90,Cleveland,OH,328542080,Award,"Nov 14, 2025","Roads / Highways, Water / Sewer",FALSE,FALSE,41.5345,-81.6459
Southerly Tunnel and Consolidation (SOTC),Cleveland,OH,328027000,Under Construction,"Dec 14, 2023",Water / Sewer,FALSE,FALSE,41.4993,-81.6944
Elementary School Properties Residential - City of North Olmsted,North Olmsted,OH,325000000,Conceptual,,Multi-Residential,FALSE,FALSE,41.4156,-81.9235
Northgate Mall Redevelopment,Cincinnati,OH,300000000,Conceptual,,"Multi-Residential, Office, Retail, Elderly Care / Assisted Living, Hotel / Motel",TRUE,TRUE,39.245,-84.5988
AEP Power Station,Columbus,OH,300000000,Conceptual,,"Office, Power Plant",FALSE,FALSE,39.9901,-83.0655
Northwood Development  /  The Kilbourne Road Site Plan,Delaware,OH,300000000,Pre-Construction/Negotiated,,"Multi-Residential, Residential Subdivision, Clubhouse / Community Centers",FALSE,FALSE,40.2987,-83.068
North Coast Connector -  City of Cleveland,Cleveland,OH,284000000,Conceptual,,Roads / Highways,FALSE,FALSE,41.4993,-81.6944
Westbend,Columbus,OH,283000000,Award,,"Multi-Residential, Playgrounds / Parks / Athletic Fields",FALSE,FALSE,39.9737,-83.0657
Towne Mall Galleria / Middletown Multi-Purpose Entertainment Venue,Middletown,OH,280000000,Design,,"Multi-Residential, Office, Parking Garage, Amusement and Recreation, Restaurant, Retail, Sidewalks / Parking Lot, Playgrounds / Parks / Athletic Fields, Arenas / Stadiums, Hotel / Motel",TRUE,FALSE,39.4962,-84.3315
Roadway Major Rehab,Burton,OH,280000000,Conceptual,,Roads / Highways,FALSE,FALSE,41.4642,-81.2078
Center of Music Innovation and Education - Columbus Symphony Orchestra,Columbus,OH,275000000,Design,,Theaters / Auditoriums,FALSE,FALSE,39.958,-83.0058
Easton Farm,Springboro,OH,265000000,Design,,"Multi-Residential, Office, Residential Subdivision, Restaurant, Retail",FALSE,FALSE,39.5723,-84.2365
SWWTP Effluent Pump Station Expansion - City of Columbus,Columbus,OH,263500000,Conceptual,,Water / Sewer,FALSE,FALSE,39.9612,-82.9988
Big Creek Tunnel (BCT) - Northeast Ohio Regional Sewer District (NEORSD),Cleveland,OH,260000000,Design,,Bridges / Tunnels,FALSE,FALSE,41.4993,-81.6944
Hutchings Station Power Plant Redevelopment,Miamisburg,OH,250000000,Conceptual,,"Multi-Residential, Solar Power Generation, Fitness / Rec Centers, Industrial",FALSE,FALSE,39.6129,-84.249
North Of New Albany Mixed-Use,New Albany,OH,250000000,Final Planning,,"Multi-Residential, Office, Residential Subdivision, Restaurant, Retail, Playgrounds / Parks / Athletic Fields, Elderly Care / Assisted Living",FALSE,TRUE,40.0977,-82.8064
Convergence Research Center / Wright-Patterson Air Force Base,Dayton,OH,250000000,Design,,Laboratories,FALSE,FALSE,39.7589,-84.1916
Western Lorain County Water Resource Recovery Facility,Lorain,OH,250000000,Design,"Oct 27, 2025",Water / Sewer,FALSE,FALSE,41.3708,-82.1141
Upground Reservoir - Site 3 - City of Columbus,Columbus,OH,250000000,Conceptual,,Water / Sewer,FALSE,FALSE,39.9625,-83.0032
Three Creeks Relief Tunnel - City of Columbus,Columbus,OH,244000000,Design,,Bridges / Tunnels,FALSE,FALSE,39.9612,-82.9988
Gender Road Residential Development,Columbus,OH,241000000,Conceptual,,"Multi-Residential, Residential Subdivision",FALSE,FALSE,39.9612,-82.9988
Crosley Tower Replacement,Cincinnati,OH,240000000,Design,,Educational,FALSE,FALSE,39.1345,-84.5167
2025 Olentangy Schools Bond Plan - Elementary School 18 and High School 5 - Olentangy Local School District,Columbus,OH,235000000,Design,,Educational,FALSE,FALSE,39.9625,-83.0032
Cleveland Municipal Land Bridge - City of Cleveland,Cleveland,OH,230000000,Conceptual,,"Retail, Bridges / Tunnels, Playgrounds / Parks / Athletic Fields, Transportation Terminals",FALSE,FALSE,41.5107,-81.6879
Lakefront Vision - Cleveland,Cleveland,OH,229000000,Design,,"Roads / Highways, Sidewalks / Parking Lot",FALSE,FALSE,41.4993,-81.6944
The Neighborhoods at Summit Park,Blue Ash,OH,222000000,Design,,"Multi-Residential, Parking Garage, Restaurant, Retail, Sidewalks / Parking Lot, Playgrounds / Parks / Athletic Fields, Arenas / Stadiums, Hotel / Motel",TRUE,FALSE,39.2518,-84.3882
RFQ Design - Kettering City School District Master Facilities Plan,Kettering,OH,222000000,Conceptual,,"Playgrounds / Parks / Athletic Fields, Educational",FALSE,FALSE,39.6869,-84.1594
District 46 at CrossCountry Mortgage Campus,Berea,OH,221000000,Award,,"Multi-Residential, Office, Retail, Playgrounds / Parks / Athletic Fields, Fitness / Rec Centers, Hotel / Motel",TRUE,FALSE,41.3818,-81.8512
Progressive Field Renovations,Cleveland,OH,202500000,Under Construction,,Arenas / Stadiums,FALSE,FALSE,41.4955,-81.687
Cooper Stadium Site Mixed-Use Redevelopment,Columbus,OH,200000000,Pre-Construction/Negotiated,,"Multi-Residential, Retail, Swimming Pools, Fitness / Rec Centers",FALSE,FALSE,39.9459,-83.0279
TruePointe Mixed Use Development,Hilliard,OH,200000000,Under Construction,,"Multi-Residential, Office, Retail, Hotel / Motel",TRUE,FALSE,40.0459,-83.1248
Cirba Solutions Processing Facility Expansion,Lancaster,OH,200000000,Under Construction,,Industrial,FALSE,FALSE,39.7122,-82.5449
Reaser Pointe Crossing Mixed-Use Development,Elyria,OH,200000000,Design,,"Multi-Residential, Retail",FALSE,FALSE,41.3684,-82.1076
Pike Island Hydroelectric Project,Yorkville,OH,200000000,Post-Bid,"Sep 5, 2025","Hydroelectric Power Generation, Water / Sewer",FALSE,FALSE,40.1496,-80.7082
3400 Vega Redevelopment,Cleveland,OH,200000000,Design,,"Multi-Residential, Retail, Hotel / Motel",TRUE,FALSE,41.4749,-81.7069
Reaser Pointe Crossing,North Ridgeville,OH,200000000,Pre-Construction/Negotiated,,"Multi-Residential, Retail",FALSE,FALSE,41.3833,-82.0948
Rarock Farms,Cincinnati,OH,200000000,Pre-Construction/Negotiated,,Residential Subdivision,FALSE,FALSE,39.4353,-84.203
Easterly Chemically Enhanced High Rate Treatment Facility,E Cleveland,OH,200000000,GC Bidding,"Apr 27, 2026",Water / Sewer,FALSE,FALSE,41.5652,-81.5671
New Basketball/Volleyball Arena,Oxford,OH,180000000,Design,,Arenas / Stadiums,FALSE,FALSE,39.5095,-84.7345
Tollgate Hills,Etna,OH,180000000,Pre-Construction/Negotiated,,"Multi-Residential, Residential Subdivision, Retail, Sidewalks / Parking Lot",FALSE,FALSE,39.958,-82.6242
Sloopy Solar Energy Center - Invenergy,Pleasant Township,OH,180000000,Conceptual,,Solar Power Generation,FALSE,FALSE,39.9082,-83.6136
RFQ Contractor - Wright Patt SABER FY 27-32,Wright Patterson AFB,OH,175000000,Conceptual,,Military,FALSE,FALSE,39.8137,-84.0537
Nationwide Childrens - New Albany Close To Home Center,New Albany,OH,170000000,Conceptual,,"Medical, Laboratories",FALSE,FALSE,40.0822,-82.8101
Cleveland Avenue Mixed-Use / Columbus,Columbus,OH,169000000,Pre-Construction/Negotiated,"Mar 2, 2023","Multi-Residential, Office, Parking Garage, Restaurant",FALSE,FALSE,39.9726,-82.9906
Major Reconstruction - IR 90,Cleveland,OH,168344007,Award,"May 1, 2025","Roads / Highways, Water / Sewer, Bridges / Tunnels",FALSE,FALSE,41.5345,-81.6459
Amlin Crossing,Dublin,OH,166000000,Pre-Construction/Negotiated,,"Multi-Residential, Residential Subdivision",FALSE,FALSE,40.071,-83.183
Interchange Expansion - SR 256 and Taylor Road,Reynoldsburg,OH,165000000,Conceptual,,"Roads / Highways, Bridges / Tunnels",FALSE,FALSE,39.9369,-82.7903
Carew Tower Apartments,Cincinnati,OH,162000000,Post-Bid,"May 30, 2025","Multi-Residential, Office, Retail",FALSE,FALSE,39.1004,-84.5143
Resolute Motorsports Facility,Delaware,OH,160000000,Pre-Construction/Negotiated,,"Parking Garage, Amusement and Recreation, Roads / Highways, Warehouse / Distribution, Clubhouse / Community Centers",FALSE,FALSE,40.2717,-83.107
Warren Peninsula Project,Warren,OH,160000000,Conceptual,,"Multi-Residential, Office, Amusement and Recreation, Restaurant, Retail, Hotel / Motel",TRUE,FALSE,41.2376,-80.8184
Add Through Lane(s) - I 75,Cincinnati,OH,160000000,Conceptual,,Roads / Highways,FALSE,FALSE,39.1616,-84.5216
Spring Street Mixed-Use,Columbus,OH,158233333,Design,,"Multi-Residential, Parking Garage, Clubhouse / Community Centers",FALSE,FALSE,39.9665,-83.0155
Clarkshaw Crossing Subdivision,Youngstown,OH,150700000,Award,,"Multi-Residential, Residential Subdivision",FALSE,FALSE,41.1616,-80.6549
Shaker Heights City School District,Shaker Heights,OH,150109059,Award,,Educational,FALSE,FALSE,41.4761,-81.5716
RFQ Construction Manager at Risk - Cuyahoga Hills Juvenile Correctional Facility Building Replacement Phase 1,Highland Hills,OH,150000000,Post-Bid,"Feb 3, 2023",Jails / Prisons,FALSE,FALSE,41.445,-81.5104
Relay 129 Apartments at Freedome Point,Liberty Township,OH,150000000,Under Construction,,"Medical, Multi-Residential, Office, Restaurant, Retail, Hotel / Motel",TRUE,FALSE,39.4015,-84.4094
Cohen Recycling Plant Redevelopment Phase I-Mixed Use / Hamilton,Hamilton,OH,150000000,Pre-Construction/Negotiated,,"Multi-Residential, Retail, Hotel / Motel",TRUE,FALSE,39.4,-84.5602
Avery Crossing,Dublin,OH,150000000,Design,,"Multi-Residential, Restaurant, Retail, Sidewalks / Parking Lot",FALSE,FALSE,40.0775,-83.1578
Jug Street Data Center,Johnstown,OH,150000000,Conceptual,,Data Centers,FALSE,FALSE,40.0954,-82.7181
Cleveland Clinic Fairview Hospital Expansion,Cleveland,OH,150000000,Design,,Medical,FALSE,FALSE,41.4502,-81.824
Tuttle Innovation Campus Redevelopment,Dublin,OH,150000000,Pre-Construction/Negotiated,,"Multi-Residential, Office",FALSE,FALSE,40.0765,-83.14
Aligned Data Center  / Conesville Industrial Park,Conesville,OH,150000000,Under Construction,,Data Centers,FALSE,FALSE,40.1849,-81.8823
Eagles Nest Development / Loveland,Loveland,OH,150000000,Final Planning,,"Multi-Residential, Retail",FALSE,FALSE,39.2193,-84.2002
Roadway Minor Rehabilitation - IR 75,Findlay,OH,150000000,Conceptual,,Roads / Highways,FALSE,FALSE,41.0508,-83.6724
Bridge North Development,Dublin,OH,150000000,Pre-Construction/Negotiated,,"Multi-Residential, Office, Parking Garage, Retail, Hotel / Motel",TRUE,FALSE,40.1055,-83.1109
Mill Creek,Centerville,OH,150000000,Conceptual,,Residential Subdivision,FALSE,FALSE,39.6486,-84.1237
RFQ Design - Design Services For The Northwest Corridor Bus Rapid Transit Service,Columbus,OH,150000000,Conceptual,"Mar 18, 2026",Transportation Terminals,FALSE,FALSE,39.9658,-83.0036
Home Road Water Plant,Delaware,OH,150000000,GC Bidding,"Jun 3, 2026",Water / Sewer,FALSE,FALSE,40.2854,-83.0595
Spaghetti Warehouse Mixed-Use,Columbus,OH,149000000,Design,,"Multi-Residential, Restaurant, Retail, Sidewalks / Parking Lot",FALSE,FALSE,39.959,-83.0256
Jackson Pike WWTP Aeration Optimization Phase 2 - City of Columbus,Columbus,OH,148271600,Conceptual,,Water / Sewer,FALSE,FALSE,39.8632,-83.0275
Walmart Distribution Center #90201.1000 New / Cincinnati,Cincinnati,OH,145000000,Award,"May 14, 2025",Retail,FALSE,FALSE,39.1032,-84.5065
"New 9-12 High School, Additions to Columbia Intermediate School, and Miscellaneous Facility Upgrades",Kings Mills,OH,142000000,Under Construction,,Educational,FALSE,FALSE,39.3558,-84.2484
Market District Townhomes,Xenia,OH,140000000,Under Construction,,Multi-Residential,FALSE,FALSE,39.6868,-83.9328
Roadway Major Rehab - US 0030,Mansfield,OH,139736000,Conceptual,,"Roads / Highways, Water / Sewer",FALSE,FALSE,40.7567,-82.5186
Roadway Major Rehab,Mansfield,OH,139736000,Conceptual,,"Roads / Highways, Water / Sewer",FALSE,FALSE,40.7799,-82.6584
London Groveport Road Single-Family Homes,Hamilton Township,OH,139000000,Pre-Construction/Negotiated,,Residential Subdivision,FALSE,FALSE,39.8254,-83.0326
Skybrook Multi-Residential Development / Marysville,Marysville,OH,135100000,Pre-Construction/Negotiated,,"Multi-Residential, Residential Subdivision",FALSE,FALSE,40.2045,-83.4048
Sycamore Springs / Pickerington,Canal Whchstr,OH,135000000,Pre-Construction/Negotiated,,"Multi-Residential, Residential Subdivision",FALSE,FALSE,39.8564,-82.7424
Factory 52 Phase II,Cincinnati,OH,134000000,Under Construction,,"Multi-Residential, Parking Garage, Sidewalks / Parking Lot, Hotel / Motel",TRUE,FALSE,39.159,-84.442
Clough Pike Residential Subdivision,Batavia,OH,132300000,Pre-Construction/Negotiated,,"Parking Garage, Residential Subdivision",FALSE,FALSE,39.0711,-84.1966
RFQ Construction Manager at Risk - Construction of a New High School,Franklin,OH,130000000,Under Construction,"Jan 6, 2021",Educational,FALSE,FALSE,39.5589,-84.3041
The BLUE / Blue Ash,Cincinnati,OH,130000000,Pre-Construction/Negotiated,,"Multi-Residential, Office, Parking Garage, Restaurant, Retail",FALSE,FALSE,39.2322,-84.3781
Stonybrook in Monroe,Liberty Township,OH,130000000,Under Construction,,"Residential Subdivision, Sidewalks / Parking Lot, Playgrounds / Parks / Athletic Fields",FALSE,FALSE,39.4124,-84.3414
North Star BlueScope Steel Expansion,Delta,OH,130000000,Conceptual,,"Manufacturing, Industrial",FALSE,FALSE,41.5708,-84.0446
RFQ Engineering - Planned Battery Energy Storage System (BESS) and Solar Development,Painesville,OH,129396997,Conceptual,,Power Plant,FALSE,FALSE,41.7266,-81.2542
New Construction - SR 7 Phase 2,Chesapeake,OH,128588035,Award,"Dec 12, 2024","Roads / Highways, Water / Sewer, Bridges / Tunnels",FALSE,FALSE,38.4282,-82.4491
New Roadway,Columbus,OH,128022562,Conceptual,,Roads / Highways,FALSE,FALSE,39.9492,-83.027
Miceli Dairy Products Co Expansion,Cleveland,OH,128000000,Final Planning,,"Office, Industrial",FALSE,FALSE,41.4846,-81.6236
RFQ Construction Manager at Risk - Bellevue Gardens Redevelopment,Cincinnati,OH,125000000,Post-Bid,"Oct 27, 2023",Educational,FALSE,FALSE,39.1355,-84.5053
Ember Apartment Complex,Milford,OH,125000000,Conceptual,,"Multi-Residential, Parking Garage, Swimming Pools, Fitness / Rec Centers, Clubhouse / Community Centers",FALSE,FALSE,39.1939,-84.2618
Add Through Lane(s) - SR 161,St Albans Township,OH,125000000,Conceptual,,Roads / Highways,FALSE,FALSE,40.0733,-82.6018
Primrose Place,Canal Winchester,OH,123100000,Under Construction,,Multi-Residential,FALSE,FALSE,39.8721,-82.8532
East Rich Street Mixed Use / The Estrella,Columbus,OH,120000000,Design,,"Multi-Residential, Office, Parking Garage, Restaurant",FALSE,FALSE,39.9577,-82.9948
"Tri Cities WWTP Improvements (Bid Pkgs 03-01, 31-02, 31-03, & 46-11)",Dayton,OH,120000000,GC Bidding,"Mar 18, 2026",Water / Sewer,FALSE,FALSE,39.824,-84.1515
Executive Blvd Mixed-Use Development / Huber Heights,Huber Heights,OH,120000000,Design,,"Multi-Residential, Retail",FALSE,FALSE,39.8705,-84.1054
Enable Injections Manufacturing Facility - Enable Injections,Cincinnati,OH,120000000,Conceptual,,Manufacturing,FALSE,FALSE,39.1031,-84.512
Dugan Place - Highland Real Estate,Urbana,OH,120000000,Pre-Construction/Negotiated,,"Multi-Residential, Residential Subdivision",FALSE,FALSE,40.0856,-83.7599
Professional Design Services for Two New High Schools,Grove City,OH,119100000,Design,,Educational,FALSE,FALSE,39.8822,-83.0935
Hague Ravine,Columbus,OH,117300000,Under Construction,,"Multi-Residential, Swimming Pools",FALSE,FALSE,39.9847,-83.0872
Dodson Creek Solar,Hillsboro,OH,117000000,Under Construction,,Solar Power Generation,FALSE,FALSE,39.2106,-83.5619
RFQ - Construction Manager at Risk Capital Improvements Project - Phase I,Hilliard,OH,116362306,Final Planning,"Dec 16, 2024",Educational,FALSE,FALSE,40.0334,-83.1582
Major Widening - US 33,Alexander Township,OH,116113876,Award,"Apr 24, 2025","Roads / Highways, Sidewalks / Parking Lot, Water / Sewer",FALSE,FALSE,39.2337,-82.0189
Major Rehabilitation - SR 90,Cleveland,OH,115841000,Award,"Feb 14, 2025","Roads / Highways, Water / Sewer, Bridges / Tunnels",FALSE,FALSE,41.5345,-81.6459
The Reverb,Huber Heights,OH,113000000,Design,,Multi-Residential,FALSE,FALSE,39.8704,-84.1083
Dublin Village Center Redevelopment,Dublin,OH,110000000,Design,,"Multi-Residential, Parking Garage, Roads / Highways, Sidewalks / Parking Lot",FALSE,FALSE,40.1048,-83.0981
Woodland Hills Apartments,Dayton,OH,109926000,Under Construction,,Multi-Residential,FALSE,FALSE,39.8309,-84.3005
Add Through Lane(s) - IR 75,Cincinnati,OH,109562000,Conceptual,,Roads / Highways,FALSE,FALSE,39.1616,-84.5216
Bridgeworks (Superior Viaduct Mixed-Use),Cleveland,OH,108000000,Pre-Construction/Negotiated,,"Multi-Residential, Parking Garage, Restaurant, Retail, Hotel / Motel",TRUE,FALSE,41.492,-81.7068
Fourth Water Plant Site Preparation,Berlin Township,OH,107626136,Award,"Nov 6, 2024","Power Plant, Water / Sewer",FALSE,FALSE,40.1838,-83.156
Mineral Ridge Dam Rehabilitation Project Rebid,Mineral Ridge,OH,106499515,Final Planning,"Jun 5, 2025",Water / Sewer,FALSE,FALSE,41.1401,-80.769
Lucy Ridge Phase I / Delaware,Delaware,OH,106000000,Final Planning,,Multi-Residential,FALSE,FALSE,40.322,-83.0994
Cencora Distribution Facility - Cencora,Cincinnati,OH,106000000,Conceptual,,Warehouse / Distribution,FALSE,FALSE,39.1031,-84.512
Toagosei America Acrylic Polymer Facility,West Jefferson,OH,105000000,Conceptual,,Industrial,FALSE,FALSE,39.9456,-83.2995
Creekside District Redevelopment,Gahanna,OH,105000000,Pre-Construction/Negotiated,,"Multi-Residential, Parking Garage, Restaurant, Bridges / Tunnels, Swimming Pools, Fitness / Rec Centers, Hotel / Motel",TRUE,FALSE,40.0192,-82.8793
Jeffrey Park Phase 10,Columbus,OH,104000000,Design,,"Multi-Residential, Parking Garage",FALSE,FALSE,39.9791,-82.9969
Kingsbury Run Consolidation Sewer (KRCS) Project,Cleveland,OH,103954740,Bid Results,"Feb 5, 2025",Water / Sewer,FALSE,FALSE,41.4993,-81.6944
Nicholas Building Residential Development / Toledo,Toledo,OH,103300000,Pre-Construction/Negotiated,,Multi-Residential,FALSE,FALSE,41.6527,-83.5369
The Ellington Multi-Residential Development / Chester TWP,West Chester,OH,100459000,Pre-Construction/Negotiated,,"Multi-Residential, Office, Parking Garage, Restaurant, Sidewalks / Parking Lot, Swimming Pools, Fitness / Rec Centers, Clubhouse / Community Centers",FALSE,FALSE,39.3321,-84.4173
The Village North Development,West Chester,OH,100000000,Under Construction,,"Multi-Residential, Office, Residential Subdivision, Restaurant, Retail, Elderly Care / Assisted Living",FALSE,TRUE,39.3665,-84.3466
Mercy Health Medical Campus / Warren,Warren,OH,100000000,Conceptual,,Medical,FALSE,FALSE,41.2309,-80.777
Cincinnati Educational TV (CET) Redevelopment,Cincinnati,OH,100000000,Conceptual,,"Multi-Residential, Museum, Office, Parking Garage, Retail, Conference / Convention Centers, Day Care Centers, Fitness / Rec Centers, Clubhouse / Community Centers",FALSE,FALSE,39.1086,-84.5202
Pebble Grove Residential Community,Goshen,OH,100000000,Under Construction,,"Residential Subdivision, Sidewalks / Parking Lot, Playgrounds / Parks / Athletic Fields",FALSE,FALSE,39.2282,-84.1465
Parkline / Columbus,Columbus,OH,100000000,Under Construction,,"Multi-Residential, Parking Garage, Retail",FALSE,FALSE,39.9755,-83.0396
Microsoft Data Center Development / Heath,Heath,OH,100000000,Conceptual,,Data Centers,FALSE,FALSE,40.0259,-82.4802
Gregory Industries Industrial Addition,Canton,OH,100000000,Under Construction,,Industrial,FALSE,FALSE,40.7989,-81.3784
Vision RNG Renewable Natural Gas Facilities,Fostoria,OH,100000000,Under Construction,,Thermal Power Generation,FALSE,FALSE,41.157,-83.4169
Project Scarlet,Cleveland,OH,100000000,Pre-Construction/Negotiated,,"Multi-Residential, Office, Restaurant, Retail",FALSE,FALSE,41.4992,-81.6862
Affordable Multifamily Housing / Cincinnati,Cincinnati,OH,100000000,Conceptual,,Multi-Residential,FALSE,FALSE,39.1336,-84.4356
Polymers Factory Expansion / Hebron,Hebron,OH,100000000,Conceptual,,Industrial,FALSE,FALSE,39.9734,-82.4737
River Pointe Apartments,Batavia,OH,100000000,Design,,"Multi-Residential, Sidewalks / Parking Lot",FALSE,FALSE,39.0812,-84.1785
Capital Line,Columbus,OH,100000000,Pre-Construction/Negotiated,,"Roads / Highways, Sidewalks / Parking Lot",FALSE,FALSE,39.9615,-83.0154
RFP Construction Manager at Risk - Upcoming Metro Bus Rapid Transit Construction Solicitation,Cincinnati,OH,100000000,Post-Bid,"May 30, 2025","Roads / Highways, Sidewalks / Parking Lot, Water / Sewer",FALSE,FALSE,39.1031,-84.512
Clark County New Jail,Springfield,OH,100000000,Conceptual,,Jails / Prisons,FALSE,FALSE,39.9234,-83.8099
Centre City Mixed-Use Development,Dayton,OH,100000000,Award,"Oct 3, 2025","Multi-Residential, Retail",FALSE,FALSE,39.7585,-84.1913
Stargate Data Center / Lordstown,Lordstown,OH,100000000,Under Construction,,"Power Plant, Data Centers",FALSE,FALSE,41.1656,-80.8576
District Cooling Plant,Dayton,OH,100000000,GC Bidding,"Mar 19, 2026","Military, Parking Garage",FALSE,FALSE,39.7592,-84.1936
Norton Road Housing / Columbus,Columbus,OH,99000000,Conceptual,,Multi-Residential,FALSE,FALSE,39.9388,-83.1426
Townhome and Apartment Community,Goshen,OH,96260784,Final Planning,,Multi-Residential,FALSE,FALSE,39.2369,-84.1646
Roadway Major Rehab -  IR-77,Cleveland,OH,95810000,Conceptual,,"Roads / Highways, Water / Sewer",FALSE,FALSE,41.4357,-81.6496
Busey Road Mixed Use / Canal Winchester,Canal Winchester,OH,95000000,Conceptual,,"Multi-Residential, Parking Garage, Retail, Sidewalks / Parking Lot, Swimming Pools, Clubhouse / Community Centers",FALSE,FALSE,39.8586,-82.7803
Lazelle Road Apartments,Columbus,OH,95000000,Pre-Construction/Negotiated,,Multi-Residential,FALSE,FALSE,40.1371,-83.017
Roadway Major Rehab - US 0030,Wooster,OH,94515000,Conceptual,,Roads / Highways,FALSE,FALSE,40.7985,-81.8876
North Hamilton Crossing - Butler County Transportation Improvement District,Hamilton,OH,94000000,Design,,Roads / Highways,FALSE,FALSE,39.4214,-84.5525
Summit Crossing Apartments,Reynoldsburg,OH,93800000,Pre-Construction/Negotiated,,"Multi-Residential, Sidewalks / Parking Lot, Playgrounds / Parks / Athletic Fields, Swimming Pools, Clubhouse / Community Centers",FALSE,FALSE,39.975,-82.7511
Cornerstone of Centerville South,Centerville,OH,93000000,Conceptual,,"Medical, Multi-Residential, Office, Amusement and Recreation, Restaurant, Retail",FALSE,FALSE,39.6284,-84.1594
Kimpton Hotel / Cincinnati,Cincinnati,OH,93000000,Under Construction,,Hotel / Motel,TRUE,FALSE,39.101,-84.511
RFQ Construction Manager at Risk (CMAR) - SWWTP Switching Station Replacement,Columbus,OH,92500000,Final Planning,"Mar 28, 2025",Water / Sewer,FALSE,FALSE,39.9612,-82.9988
Roadway Major Rehab - I-90,Painesville,OH,92243000,Conceptual,,Roads / Highways,FALSE,FALSE,41.6729,-81.2404
